id,brand_full,brand_short,branch_name,branch_type,add_one,add_two,suburb,town,region,postcode,long_wgs84,lat_wgs84,hours_monday,hours_tuesday,hours_wednesday,hours_thursday,hours_friday,hours_saturday,trading_hours,status,close_month,close_year,open_year,po_dist
1,Allied Irish Bank,AIB,Birmingham,Branch,Birmingham City Office,61 Temple Row,Central Birmingham,Birmingham,West Midlands,B2 5LT,-1.8985704773717997,52.48044850437876,09:00-17:00,09:00-17:00,10:00-17:00,09:00-17:00,09:00-16:45,,38.75,Open,,,,298
2,Allied Irish Bank,AIB,Brighton,Branch,20/22 Marlborough Place,Brighton,Central Brighton,Brighton,South East,BN1 1UB,-0.136891,50.824596,09:00-17:00,09:00-17:00,10:00-17:00,09:00-17:00,09:00-16:45,,38.75,Open,,,,449
3,Allied Irish Bank,AIB,Clifton,Branch,19 Whiteladies Road,Clifton,Cotham,Bristol,South West,BS8 1PB,-2.6087,51.459759,09:00-17:00,09:00-17:00,10:00-17:00,09:00-17:00,09:00-16:45,,38.75,Open,,,,511
4,Allied Irish Bank,AIB,High St Belfast,Branch,,,Central Belfast,Belfast,Northern Ireland,BT1 2AL,-5.926691,54.599923,,,,,,,,Closed,8,2017,,54
5,Allied Irish Bank,AIB,Belfast,Branch,"Donegall Square North, Town Centre, City Of Belfast, Belfast",,Central Belfast,Belfast,Northern Ireland,BT1 5GB,-5.93087,54.59725,,,,,,,,Open,,,,166
6,Allied Irish Bank,AIB,Andersonstown,Branch,,,Andersonstown,Belfast,Northern Ireland,BT11 9BY,-5.988669,54.573287,,,,,,,,Closed,7,2017,,371
7,Allied Irish Bank,AIB,Bangor,Branch,"85 Main Street, County Down, Bangor",,Central Bangor,Bangor,Northern Ireland,BT20 4BA,-5.66849,54.6604,,,,,,,,Closed,11,2021,,47
8,Allied Irish Bank,AIB,Newtownards,Branch,,,Newtonards,Newtownards,Northern Ireland,BT23 7HS,-5.694836,54.592691,,,,,,,,Closed,6,2017,,203
9,Allied Irish Bank,AIB,Lisburn,Branch,"34-36 Market Square, Town Centre, County Antrim, Lisburn",,Central Lisburn,Lisburn,Northern Ireland,BT28 1AG,-6.044236,54.511319,,,,,,,,Closed,11,2021,,247
10,Allied Irish Bank,AIB,Downpatrick,Branch,,,,Downpatrick,Northern Ireland,BT30 6LP,-5.716951,54.327872,,,,,,,,Closed,7,2017,,198
11,Allied Irish Bank,AIB,Banbridge,Branch,,,,Banbridge,Northern Ireland,BT32 3JL,-6.268803,54.349707,,,,,,,,Closed,8,2017,,259
12,Allied Irish Bank,AIB,Newcastle,Branch,"28-32 Main Street, County Down, Newcastle",,,"Newcastle, Down",Northern Ireland,BT33 0AD,-5.88907,54.21385,,,,,,,,Closed,11,2021,,171
13,Allied Irish Bank,AIB,Newry,Branch,"42-44 Hill Street, Town Centre, County Down, Newry",,Central Newry,Newry,Northern Ireland,BT34 1AR,-6.33828,54.17459,,,,,,,,Open,,,,83
14,Allied Irish Bank,AIB,Warren Point,Branch,,,,Warrenpoint,Northern Ireland,BT34 3LY,-6.25401,54.100457,,,,,,,,Closed,6,2017,,64
15,Allied Irish Bank,AIB,Kilkeel,Branch,"30 Greencastle Street, Town Centre, Kilkeel, County Down, Newry",,,Kilkeel,Northern Ireland,BT34 4BH,-6.00844,54.06211,,,,,,,,Closed,11,2021,,43
16,Allied Irish Bank,AIB,Glengormley,Branch,"322 Antrim Road, Town Centre, County Antrim, Newtownabbey",,Central Newtownabbey,Newtownabbey,Northern Ireland,BT36 5EQ,-5.95895,54.67153,,,,,,,,Closed,11,2021,,185
17,Allied Irish Bank,AIB,Knock Upper Newtownards Road,Branch,,,Sydenham,Belfast,Northern Ireland,BT4 3EU,-5.873467,54.596115,,,,,,,,Closed,7,2017,,92
18,Allied Irish Bank,AIB,Antrim,Branch,,,Antrim South,Antrim,Northern Ireland,BT41 4DS,-6.219994,54.715048,,,,,,,,Closed,7,2017,,675
19,Allied Irish Bank,AIB,Ballymena,Branch,"78 Wellington Street, Town Centre, County Antrim, Ballymena",,Central Ballymena,Ballymena,Northern Ireland,BT43 6AF,-6.2752,54.8658,,,,,,,,Open,,,,85
20,Allied Irish Bank,AIB,Magherafely,Branch,,,,Magherafelt,Northern Ireland,BT45 5AG,-6.609001,54.755372,,,,,,,,Closed,7,2017,,157
21,Allied Irish Bank,AIB,Crescent Link - Londonderry,Branch,,,Lisnagelvin,Derry,Northern Ireland,BT47 6SA,-7.274504,54.998141,,,,,,,,Closed,7,2017,,742
22,Allied Irish Bank,AIB,Londonderry,Branch,"Strand Road, Town Centre, County Londonderry, Londonderry",,Northside,Derry,Northern Ireland,BT48 7TL,-7.319663,55.01996,,,,,,,,Open,,,,957
23,Allied Irish Bank,AIB,Coleraine,Branch,"33 The Diamond, Town Centre, County Londonderry, Coleraine",,Coleraine West,Coleraine,Northern Ireland,BT52 1DP,-6.67077,55.13165,,,,,,,,Closed,11,2021,,111
24,Allied Irish Bank,AIB,Armagh,Branch,,,Armagh West,Armagh City,Northern Ireland,BT61 7LD,-6.655057,54.349645,,,,,,,,Closed,7,2017,,286
25,Allied Irish Bank,AIB,Portadown,Branch,,,Portadown West,Portadown,Northern Ireland,BT62 3LD,-6.444266,54.422778,,,,,,,,Closed,8,2017,,249
26,Allied Irish Bank,AIB,Lurgan,Branch,"Market Street, Town Centre, Lurgan, County Armagh, Craigavon",,Central Lurgan,Lurgan,Northern Ireland,BT66 6AQ,-6.332222,54.4626,,,,,,,,Closed,11,2021,,65
27,Allied Irish Bank,AIB,Belfast University Road,Branch,"35 University Road, Town Centre, City Of Belfast, Belfast",,Queens,Belfast,Northern Ireland,BT7 1ND,-5.93593,54.58635,,,,,,,,Open,,,,323
28,Allied Irish Bank,AIB,Oremeau Road,Branch,,,Ormeau,Belfast,Northern Ireland,BT7 3GQ,-5.917557,54.575731,,,,,,,,Closed,6,2017,,15
29,Allied Irish Bank,AIB,Dungannon,Branch,"18-20 Scotch Street, Town Centre, County Tyrone, Dungannon",,Dungannon West,Dungannon,Northern Ireland,BT70 1AR,-6.77056,54.50362,,,,,,,,Open,,,,149
30,Allied Irish Bank,AIB,Enniskillen,Branch,"East Bridge Street, Fermanagh, Enniskillen",,,Enniskillen,Northern Ireland,BT74 7BT,-7.63522,54.34394,,,,,,,,Open,,,,188
31,Allied Irish Bank,AIB,Omagh,Branch,"8 High Street, Town Centre, County Omagh, Omagh",,,Omagh,Northern Ireland,BT78 1BH,-7.30185,54.60006,,,,,,,,Closed,11,2021,,103
32,Allied Irish Bank,AIB,Cookstown,Branch,,,Cookstown,Cookstown,Northern Ireland,BT80 8LW,-6.74456,54.646325,,,,,,,,Closed,6,2017,,274
33,Allied Irish Bank,AIB,Strabane,Branch,,,,Strabane,Northern Ireland,BT82 8AU,-7.463761,54.825711,,,,,,,,Closed,7,2017,,50
34,Allied Irish Bank,AIB,Cardiff,Branch,2 Callaghan Square,Cardiff,Central Cardiff,Cardiff,Wales,CF10 5AZ,-3.173758,51.475925,09:30-15:30,09:30-15:30,10:00-15:30,09:30-15:30,09:30-15:30,,29.5,Open,,,,422
35,Allied Irish Bank,AIB,Moorgate,Branch,26 Finsbury Square,Moorgate,Shoreditch,London,London,EC2A 1DS,-0.085168,51.52145,09:30-15:30,09:30-15:30,10:00-15:30,09:30-15:30,09:30-15:30,,29.5,Open,,,,526
36,Allied Irish Bank,AIB,Edinburgh,Branch,19 Charlotte Square,Edinburgh,New Town,Edinburgh,Scotland,EH2 4DE,-3.208931,55.951221,09:30-15:30,09:30-15:30,10:00-15:30,09:30-15:30,09:30-15:30,,29.5,Open,,,,640
37,Allied Irish Bank,AIB,Glasgow,Branch,227 West George Street,Glasgow,Central Glasgow,Glasgow,Scotland,G2 2ND,-4.261334,55.862808,09:30-15:30,09:30-15:30,10:00-15:30,09:30-15:30,09:30-15:30,,29.5,Open,,,,238
38,Allied Irish Bank,AIB,Liverpool,Branch,1 St Paul's Square,Old Hall Street,Central Liverpool,Liverpool,North West,L3 9PP,-2.994887,53.409737,09:30-15:30,09:30-15:30,10:00-15:30,09:30-15:30,09:30-15:30,,29.5,Open,,,,307
39,Allied Irish Bank,AIB,Leeds,Branch,1 City Square,Leeds,Central Leeds,Leeds,Yorkshire and The Humber,LS1 2ES,-1.547426,53.796898,09:00-17:00,09:00-17:00,10:00-17:00,09:00-17:00,09:00-16:45,,38.75,Open,,,,428
40,Allied Irish Bank,AIB,Manchester,Branch,Vantage Point,Hardman Street,Central Manchester,Manchester,North West,M3 3PL,-2.250096,53.479542,09:30-15:30,09:30-15:30,10:00-15:30,09:30-15:30,09:30-15:30,,29.5,Open,,,,232
41,Allied Irish Bank,AIB,Newcastle,Branch,1 Trinity Gardens,Broad Chare,Central Newcastle,Newcastle Upon Tyne,North East,NE1 2HF,-1.604932,54.970421,09:30-15:30,09:30-15:30,10:00-15:30,09:30-15:30,09:30-15:30,,29.5,Open,,,,687
42,Allied Irish Bank,AIB,Nottingham,Branch,Park View House,58 The Ropewalk,Central Nottingham,Nottingham,East Midlands,NG1 5DW,-1.157378,52.952187,09:00-17:00,09:00-17:00,10:00-17:00,09:00-17:00,09:00-16:45,,38.75,Open,,,,879
43,Allied Irish Bank,AIB,Hampstead,Branch,202 Finchley Road,Hampstead,Frognal,London,London,NW3 6BX,-0.182248,51.550224,09:30-15:30,09:30-15:30,10:00-15:30,09:30-15:30,09:30-15:30,,29.5,Open,,,,151
44,Allied Irish Bank,AIB,Mayfair,Branch,10 Berkeley Square,Mayfair,Mayfair,London,London,W1J 6AA,-0.144774,51.509457,09:00-17:00,09:00-17:00,10:00-17:00,09:00-17:00,09:00-16:45,,38.75,Open,,,,347
45,Allied Irish Bank,AIB,Ealing,Branch,Ealing Cross,85 Uxbridge Road,Ealing,London,London,W5 5TH,-0.311911,51.512028,09:30-15:30,09:30-15:30,10:00-15:30,09:30-15:30,09:30-15:30,,29.5,Open,,,,422
46,Bank of Ireland,BOI,Belfast City Centre,Branch,"High Street, City Of Belfast, Belfast",,Central Belfast,Belfast,Northern Ireland,BT1 2BA,-5.928599,54.599926,,,,,,,,Closed,,2020,,73
47,Bank of Ireland,BOI,Belfast City Branch,Branch,1 Donegal Square,,Central Belfast,Belfast,Northern Ireland,BT1 5LR,-5.928937,54.595918,,,,,,,,Open,,,,208
48,Bank of Ireland,BOI,Anderstown Road,Branch,"202 Andersonstown Road, Town Centre, City Of Belfast, Belfast",,Andersonstown,Belfast,Northern Ireland,BT11 9EB,-5.9925,54.57311,,,,,,,,Open,,,,127
49,Bank of Ireland,BOI,Bangor,Branch,"82a Main Street, County Down, Bangor",,Central Bangor,Bangor,Northern Ireland,BT20 4AG,-5.66832,54.66056,,,,,,,,Open,,,,63
50,Bank of Ireland,BOI,Lisburn,Branch,"22-24 Market Square, Town Centre, County Antrim, Lisburn",,Central Lisburn,Lisburn,Northern Ireland,BT28 1AG,-6.04374,54.51112,,,,,,,,Closed,6,2021,,269
51,Bank of Ireland,BOI,Downpatrick,Branch,"80-82 Market Street, Town Centre, County Down, Downpatrick",,,Downpatrick,Northern Ireland,BT30 6LZ,-5.71819,54.32674,,,,,,,,Closed,6,2021,,66
52,Bank of Ireland,BOI,Banbridge,Branch,"17-21 Bridge Street, County Down, Banbridge",,,Banbridge,Northern Ireland,BT32 3JL,-6.26982,54.34896,,,,,,,,Closed,,2021,,163
53,Bank of Ireland,BOI,Newry,Branch,"12 Trevor Hill, Town Centre, County Down, Newry",,Central Newry,Newry,Northern Ireland,BT34 1DN,-6.33494,54.17857,,,,,,,,Open,,,,164
54,Bank of Ireland,BOI,Glengormley,Branch,"275-279 Antrim Road, Town Centre, County Antrim",,Central Newtownabbey,Newtownabbey,Northern Ireland,BT36 7QN,-5.95709,54.67007,,,,,,,,Open,,,,59
55,Bank of Ireland,BOI,Antrim,Branch,27 High Street,,Antrim South,Antrim,Northern Ireland,BT41 4AX,-6.218724,54.714284,,,,,,,,Closed,3,2017,,771
56,Bank of Ireland,BOI,Ballymena,Branch,"153-155 Church Street, Town Centre, County Antrim, Ballymena",,Central Ballymena,Ballymena,Northern Ireland,BT43 6DG,-6.27367,54.86639,,,,,,,,Closed,,2021,,199
57,Bank of Ireland,BOI,Magherafelt,Branch,"11 Market Street, County Londonderry, Magherafelt",,,Magherafelt,Northern Ireland,BT45 6EE,-6.607865,54.754985,,,,,,,,Open,,,,211
58,Bank of Ireland,BOI,Draperstown,Branch,21 St Patrick's St,,,Draperstown,Northern Ireland,BT45 7AJ,-6.786617,54.792836,,,,,,,,Closed,11,2016,,107
59,Bank of Ireland,BOI,Maghera,Branch,55 Main Street,,,"Maghera, Londonderry",Northern Ireland,BT46 5AB,-6.674071,54.845057,,,,,,,,Closed,2,2017,,173
60,Bank of Ireland,BOI,Londonderry Strand Road,Branch,"15 Strand Road, Town Centre, County Londonderry, Londonderry",,Central Derry,Derry,Northern Ireland,BT48 7BT,-7.32075,55.00599,,,,,,,,Closed,10,2021,,416
61,Bank of Ireland,BOI,Londonderry Culmore Road,Branch,"27 Culmore Road, County Londonderry, Londonderry",,Northside,Derry,Northern Ireland,BT48 8JB,-7.3076,55.02165,,,,,,,,Open,,,,954
62,Bank of Ireland,BOI,Limavady,Branch,"37-39 Main Street, Town Centre, County Londonderry, Limavady",,,Limavady,Northern Ireland,BT49 0EP,-6.95201,55.05188,,,,,,,,Closed,7,2021,,167
63,Bank of Ireland,BOI,Castlereagh,Branch,1E Ballygowan Road,,Knockbreda,Belfast,Northern Ireland,BT5 7LH,-5.870735,54.577306,,,,,,,,Closed,1,2017,,71
64,Bank of Ireland,BOI,Coleraine,Branch,"2 The Diamond, Town Centre, County Londonderry, Coleraine",,Coleraine West,Coleraine,Northern Ireland,BT52 1DE,-6.67085,55.13155,,,,,,,,Open,,,,99
65,Bank of Ireland,BOI,Keady,Branch,"14-16 Kinelowen Street, Town Centre, County Armagh, Armagh",,,Keady,Northern Ireland,BT60 3SU,-6.7041,54.24947,,,,,,,,Closed,11,2021,,153
66,Bank of Ireland,BOI,Armgah,Branch,"11 Upper English Street, Town Centre, County Armagh, Armagh",,Armagh West,Armagh City,Northern Ireland,BT61 7BH,-6.65479,54.34963,,,,,,,,Open,,,,278
67,Bank of Ireland,BOI,Portadown,Branch,"43 High Street, Town Centre, Portadown, County Armagh, Craigavon",,Portadown West,Portadown,Northern Ireland,BT62 1HY,-6.44235,54.423685,,,,,,,,Closed,7,2021,,406
68,Bank of Ireland,BOI,Lurgan,Branch,"13 Market Street, Town Centre, Lurgan, County Armagh, Craigavon",,Central Lurgan,Lurgan,Northern Ireland,BT66 6AR,-6.333079,54.462396,,,,,,,,Open,,,,58
69,Bank of Ireland,BOI,Belfast University Road,Branch,"31 University Road, City Of Belfast, Belfast",,Queens,Belfast,Northern Ireland,BT7 1NA,-5.936,54.5861,,,,,,,,Closed,6,2021,,295
70,Bank of Ireland,BOI,Belfast Oreau Road,Branch,"306-310 Ormeau Road, City Of Belfast, Belfast",,Ormeau,Belfast,Northern Ireland,BT7 2GE,-5.91758,54.57626,,,,,,,,Closed,6,2021,,45
71,Bank of Ireland,BOI,Dungannon,Branch,"24 Scotch Street, Town Centre, County Tyrone, Dungannon",,Dungannon West,Dungannon,Northern Ireland,BT70 1AR,-6.77146,54.50306,,,,,,,,Closed,7,2021,,233
72,Bank of Ireland,BOI,Enniskillen,Branch,"7 Townhall Street, Fermanagh, Enniskillen",,,Enniskillen,Northern Ireland,BT74 7BD,-7.63861,54.34462,,,,,,,,Open,,,,286
73,Bank of Ireland,BOI,Omagh,Branch,"23-25 Campsie Road, Town Centre, County Omagh, Omagh",,,Omagh,Northern Ireland,BT79 0AE,-7.2951,54.60071,,,,,,,,Open,,,,137
74,Bank of Ireland,BOI,Cookstown,Branch,"32 James Street, Town Centre, County Tyrone, Cookstown",,Cookstown,Cookstown,Northern Ireland,BT80 8LT,-6.74493,54.64558,,,,,,,,Open,,,,284
75,Bank of Ireland,BOI,Castlederg,Branch,4 John Street,,,Castlederg,Northern Ireland,BT81 7AQ,-7.593506,54.709473,,,,,,,,Closed,1,2017,,72
76,Bank of Ireland,BOI,Strabane,Branch,"1 Abercorn Square, Town Centre, County Tyrone, Strabane",,,Strabane,Northern Ireland,BT82 8AG,-7.46311,54.82668,,,,,,,,Closed,10,2021,,152
77,Bank of Ireland,BOI,Belfast Lisburn Road,Branch,"364 Lisburn Road, Town Centre, City Of Belfast, Belfast",,Lisburn Road,Belfast,Northern Ireland,BT9 6GL,-5.958809,54.572964,,,,,,,,Closed,6,2021,,489
78,Bank of Ireland,BOI,Lisnaskea,Branch,"141 Main Street, Lisnaskea, Fermanagh, Enniskillen",,,Lisnaskea,Northern Ireland,BT92 0JE,-7.44288,54.2529,,,,,,,,Closed,7,2021,,82
79,Bank of Ireland,BOI,Belleek,Branch,Main Street,,,Beleek,Northern Ireland,BT93 3FY,-8.09189,54.479956,,,,,,,,Closed,3,2017,,20
80,Bank of Scotland,BOS,Aberdeen Upperkirkgate,Branch,48 Upperkirkgate,,Central Aberdeen,Aberdeen,Scotland,AB10 1BA,-2.099225504,57.14844919,09:00-17:00,09:00-17:00,09:00-17:00,09:00-17:00,09:00-17:00,09:00-15:00,46,Open,,,,105
81,Bank of Scotland,BOS,Aberdeen Queens Cross,Branch,39 Albyn Place,,Rubislaw,Aberdeen,Scotland,AB10 1YN,-2.124881156,57.142752,09:00-17:00,09:00-17:00,09:00-17:00,09:00-17:00,09:00-17:00,,40,Open,,,,1012
82,Bank of Scotland,BOS,Aberdeen 201 Union Street,Branch,201 Union Street,,Central Aberdeen,Aberdeen,Scotland,AB11 6UG,-2.103694749,57.1449783,09:30-16:30,09:30-16:30,09:30-16:30,09:30-16:30,09:30-16:30,,35,Closed,10,2022,,465
83,Bank of Scotland,BOS,Tullos,Branch,10 Greenwell RoadAberdeen,,Torry,Aberdeen,Scotland,AB12 3AZ,-2.089556,57.127199,,,,,,,,Closed,3,2021,,405
84,Bank of Scotland,BOS,Aberdeen Cults,Branch,389 North Deeside Road,Cults,,"Cults, Aberdeenshire",Scotland,AB15 9SX,-2.177319271,57.11728463,09:00-15:00,09:00-15:00,09:00-15:00,09:00-15:00,09:00-15:00,,30,Closed,8,2023,,143
85,Bank of Scotland,BOS,Dyce,Branch,9 Victoria Street,Dyce,Dyce,Dyce,Scotland,AB21 7DX,-2.18884152,57.20166476,09:00-15:00,09:00-15:00,09:00-15:00,09:00-15:00,09:00-15:00,,30,Closed,7,2022,,352
86,Bank of Scotland,BOS,Bridge Of Don,Branch,79 Ellon Road,,Bridge of Don,Bridge of Don,Scotland,AB23 8BY,-2.09207786,57.18279929,09:30-16:30,09:30-16:30,09:30-16:30,09:30-16:30,09:30-16:30,,35,Open,,,,1309
87,Bank of Scotland,BOS,"Aberdeen, John Street",Branch,,,Central Aberdeen,Aberdeen,Scotland,AB25 1LL,-2.103719,57.150869,,,,,,,,Closed,10,2016,,488
88,Bank of Scotland,BOS,Banchory,Branch,70 High Street,,,Banchory,Scotland,AB31 5SS,-2.503216317,57.0512361,09:30-15:30,09:30-15:30,09:30-15:30,09:30-15:30,09:30-15:30,,30,Open,,,,54
89,Bank of Scotland,BOS,Ballater,Branch,9 Bridge Street,,,Ballater,Scotland,AB35 5QP,-3.038692554,57.04783004,10:00-14:00,,10:00-14:00,,10:00-14:00,,12,Closed,10,2023,,238
90,Bank of Scotland,BOS,Braemar,Branch,7/9 Invercauld Road,Braemar,,Braemar,Scotland,AB35 5YP,-3.3981826,57.0066169,,10:00-14:00,,10:00-14:00,,,8,Closed,10,2023,,161
91,Bank of Scotland,BOS,Aberlour,Branch,,,,Charlestown of Aberlour,Scotland,AB38 9QA,-3.224239,57.471283,,,,,,,,Closed,11,2016,,41
92,Bank of Scotland,BOS,Stonehaven,Branch,27 Market Square,,,Stonehaven,Scotland,AB39 2BB,-2.208885569,56.96443838,09:00-15:00,09:00-15:00,09:00-15:00,09:00-15:00,09:00-15:00,,30,Open,,,,160
93,Bank of Scotland,BOS,Ellon,Branch,5 The Square,,,Ellon,Scotland,AB41 9JB,-2.071301759,57.36501512,09:30-15:30,09:30-15:30,09:30-15:30,09:30-15:30,09:30-15:30,,30,Closed,9,2024,,144
94,Bank of Scotland,BOS,Peterhead Broad Street,Branch,32 Broad Street,,,Peterhead,Scotland,AB42 1BY,-1.776418388,57.50469409,09:00-15:00,09:00-15:00,09:00-15:00,09:00-15:00,09:00-15:00,09:00-13:00,34,Open,,,,286
95,Bank of Scotland,BOS,New Pitsligo,Branch,,,,New Pitsligo,Scotland,AB43 6NF,-2.198,57.592786,,,,,,,,Closed,10,2016,,50
96,Bank of Scotland,BOS,Fraserburgh,Branch,Seaforth Street,,,Fraserburgh,Scotland,AB43 9BB,-2.005012102,57.69120293,09:00-15:00,09:00-15:00,09:00-15:00,09:00-15:00,09:00-15:00,,30,Open,,,,199
97,Bank of Scotland,BOS,Macduff,Branch,,,,Macduff,Scotland,AB44 1TX,-2.497749,57.670321,,,,,,,,Closed,11,2016,,68
98,Bank of Scotland,BOS,Banff,Branch,29 Low Street,,,Banff,Scotland,AB45 1AU,-2.521894448,57.663963,09:00-15:00,09:00-15:00,09:00-15:00,09:00-15:00,09:00-15:00,,30,Closing,5,2025,,171
99,Bank of Scotland,BOS,Portsoy,Branch,,,,Portsoy,Scotland,AB45 2QT,-2.688519,57.681554,,,,,,,,Closed,11,2016,,6580
100,Bank of Scotland,BOS,Inverurie,Branch,Garioch Centre,,,Inverurie,Scotland,AB51 4SB,-2.3763143,57.2863303,09:00-15:00,09:00-15:00,09:00-15:00,09:00-15:00,09:00-15:00,09:00-13:00,34,Open,,,,365
101,Bank of Scotland,BOS,Turriff,Branch,15 High StreetTurriff,,,Turriff,Scotland,AB53 4ED,-2.46168,57.53758,,,,,,,,Closed,3,2021,,45
102,Bank of Scotland,BOS,Huntly,Branch,2 Gordon StreetHuntly,,,Huntly,Scotland,AB54 8AJ,-2.786992,57.447112,,,,,,,,Closed,3,2021,,48
103,Bank of Scotland,BOS,Keith,Branch,196 Mid Street,,,Keith,Scotland,AB55 5BQ,-2.949812,57.542667,,,,,,,,Closed,5,2019,,20
104,Bank of Scotland,BOS,Buckie,Branch,21 East Church Street,,Buckie,Buckie,Scotland,AB56 1EX,-2.962904877,57.6769716,09:00-15:00,09:00-15:00,09:00-15:00,09:00-15:00,09:00-15:00,,30,Closed,8,2024,,120
105,Bank of Scotland,BOS,Cullen,Branch,,,,Cullen,Scotland,AB56 4RS,-2.820397,57.690712,,,,,,,,Closed,11,2016,,90
106,Bank of Scotland,BOS,Dundee City,Branch,2 West Marketgait,,Central Dundee,Dundee,Scotland,DD1 1QN,-2.974453,56.45839,,,,,,,,Closed,2,2019,,300
107,Bank of Scotland,BOS,Dundee Murraygate,Branch,65-69 Murraygate,,Central Dundee,Dundee,Scotland,DD1 2EA,-2.968342335,56.46316156,09:00-17:00,09:00-17:00,09:00-17:00,09:00-17:00,09:00-17:00,09:00-15:00,46,Open,,,,130
108,Bank of Scotland,BOS,Montrose,Branch,31 High Street,,,Montrose,Scotland,DD10 8LT,-2.467800546,56.71274894,09:00-15:30,10:30-15:30,09:00-15:30,09:00-15:30,09:00-15:30,,31,Closing,3,2025,,101
109,Bank of Scotland,BOS,Arbroath,Branch,Brothock Bridge,,Hayshead,Arbroath,Scotland,DD11 1NH,-2.583224953,56.55831522,09:30-16:30,09:30-16:30,09:30-16:30,09:30-16:30,09:30-16:30,09:00-13:00,39,Open,,,,290
110,Bank of Scotland,BOS,Dundee Fairmuir,Branch,291 Clepington Road,,Stobswell,Dundee,Scotland,DD3 8BD,-2.977376514,56.4778371,09:30-16:30,09:30-16:30,09:30-16:30,09:30-16:30,09:30-16:30,,35,Closed,11,2023,,681
111,Bank of Scotland,BOS,Dundee Broughty Ferry,Branch,327 Brook Street,Broughty Ferry,Broughty Ferry,Dundee,Scotland,DD5 2DS,-2.871813825,56.4668863,09:00-15:00,09:00-15:00,09:00-15:00,09:00-15:00,09:00-15:00,,30,Open,,,,125
112,Bank of Scotland,BOS,Carnoustie,Branch,1D High Street,,,Carnoustie,Scotland,DD7 6AN,-2.707949,56.501453,,,,,,,,Closed,4,2018,,312
113,Bank of Scotland,BOS,Forfar,Branch,72 West High Street,,,Forfar,Scotland,DD8 1BJ,-2.891958,56.6432794,09:00-15:30,09:00-15:30,09:00-15:30,09:00-15:30,09:00-15:30,,32.5,Open,,,,291
114,Bank of Scotland,BOS,Kirriemuir,Branch,11 Bank Street,,,Kirriemuir,Scotland,DD8 4BE,-3.003249,56.673382,,,,,,,,Closed,5,2019,,104
115,Bank of Scotland,BOS,Brechin,Branch,5 Clerk Street,,,Brechin,Scotland,DD9 6AD,-2.659361225,56.73298245,09:30-15:00,09:30-15:00,12:00-15:00,09:30-15:00,09:30-15:00,,25,Closed,8,2022,,141
116,Bank of Scotland,BOS,Edzell,Branch,,,,Edzell,Scotland,DD9 7TF,-2.653544,56.806729,,,,,,,,Closed,11,2016,,326
117,Bank of Scotland,BOS,Dumfries High Street,Branch,91 High Street,,Calside,Dumfries,Scotland,DG1 2BN,-3.610492099,55.06814866,09:00-17:00,09:00-17:00,09:00-17:00,09:00-17:00,09:00-17:00,09:00-13:00,44,Open,,,,76
118,Bank of Scotland,BOS,Moffat,Branch,8 High Street,,,Moffat,Scotland,DG10 9EX,-3.4442453,55.3327811,09:00-15:00,09:00-15:00,09:00-15:00,09:00-15:00,09:00-15:00,,30,Open,,,,170
119,Bank of Scotland,BOS,Lockerbie,Branch,81 High Street,,,Lockerbie,Scotland,DG11 2JH,-3.355873141,55.12102265,09:00-15:00,09:00-15:00,09:00-15:00,09:00-15:00,09:00-15:00,,30,Closed,8,2022,,60
120,Bank of Scotland,BOS,Annan,Branch,111 High Street,,,Annan,Scotland,DG12 6AB,-3.259983013,54.98721645,09:30-16:30,09:30-16:30,09:30-16:30,09:30-16:30,09:30-16:30,,35,Open,,,,158
121,Bank of Scotland,BOS,Langholm,Branch,High Street,Langholm,,Langholm,Scotland,DG13 0JH,-3.000011542,55.15161428,10:00-14:00,,10:00-14:00,,10:00-14:00,,12,Closing,4,2025,,58
122,Bank of Scotland,BOS,Thornhill,Branch,63 Drumlanrig Street,,,"Thornhill, Dumfries & Galloway",Scotland,DG3 5LY,-3.763910614,55.24022515,09:00-15:00,09:00-15:00,09:00-15:00,09:00-15:00,09:00-15:00,,30,Open,,,,270
123,Bank of Scotland,BOS,Sanquhar,Branch,63 High Street,,,Sanquhar,Scotland,DG4 6DT,-3.922471107,55.36739418,09:00-15:00,09:00-15:00,,09:00-15:00,09:00-15:00,,24,Open,,,,136
124,Bank of Scotland,BOS,Dalbeattie,Branch,,,,Dalbeattie,Scotland,DG5 4AL,-3.823045,54.933615,,,,,,,,Closed,10,2017,,108
125,Bank of Scotland,BOS,Kirkcudbright,Branch,15 St Mary Street,,,Kirkcudbright,Scotland,DG6 4AD,-4.0494182,54.8363399,09:00-15:00,09:00-15:00,09:00-15:00,09:00-15:00,09:00-15:00,,30,Closed,8,2022,,141
126,Bank of Scotland,BOS,Castle Douglas,Branch,192 King Street,,,Castle Douglas,Scotland,DG7 1DB,-3.931501347,54.93964042,09:00-15:30,09:00-15:30,09:00-15:30,09:00-15:30,09:00-15:30,,32.5,Open,,,,198
127,Bank of Scotland,BOS,Gatehouse,Branch,,,,Gatehouse of Fleet,Scotland,DG7 2HR,-4.182833,54.882816,,,,,,,,Closed,10,2017,,3
128,Bank of Scotland,BOS,Dalry (Kirkcudbright),Branch,,,,St John's Town of Dalry,Scotland,DG7 3UW,-4.16236,55.106515,,,,,,,,Closed,10,2017,,35
129,Bank of Scotland,BOS,Wigtown,Branch,,,,Wigtown,Scotland,DG8 9HL,-4.44348,54.86826,,,,,,,,Closed,9,2017,,4082
130,Bank of Scotland,BOS,Port William,Branch,,,,Port William,Scotland,DG8 9SL,-4.580837,54.758908,,,,,,,,Closed,10,2017,,239
131,Bank of Scotland,BOS,Stranraer George Street,Branch,64-66 George Street,,,Stranraer,Scotland,DG9 7JN,-5.0290452,54.9048058,09:00-15:30,09:00-15:30,09:00-15:30,09:00-15:30,09:00-15:30,09:00-13:00,36.5,Open,,,,309
132,Bank of Scotland,BOS,Edinburgh Royal Mile,Branch,300 Lawnmarket,,Old Town,Edinburgh,Scotland,EH1 2PH,-3.192869951,55.94924678,09:00-17:00,09:00-17:00,09:00-17:00,09:00-17:00,09:00-17:00,,40,Closed,7,2023,,380
133,Bank of Scotland,BOS,Edinburgh St James Quarter,Branch,112 St James Crescent,,New Town,Edinburgh,Scotland,EH1 3AD,-3.1895163,55.9547016,09:00-20:00,09:00-20:00,09:00-20:00,09:00-20:00,09:00-20:00,10:00-18:00,63,Open,,,,247
134,Bank of Scotland,BOS,Edinburgh Greenside,Branch,6 Picardy PlaceEdinburgh,,New Town,Edinburgh,Scotland,EH1 3JT,-3.187363,55.957067,,,,,,,,Closed,4,2021,,334
135,Bank of Scotland,BOS,Edinburgh North Morningside,Branch,,,Merchiston,Edinburgh,Scotland,EH10 4DD,-3.210482,55.934721,,,,,,,,Closed,7,2017,,169
136,Bank of Scotland,BOS,Edinburgh Morningside,Branch,426 Morningside Road,,Morningside,Edinburgh,Scotland,EH10 5QF,-3.209984198,55.92527624,09:00-17:00,09:00-17:00,09:00-17:00,09:00-17:00,09:00-17:00,09:00-13:00,44,Open,,,,883
137,Bank of Scotland,BOS,Edinburgh Dalry Road,Branch,1 Ardmillan TerraceEdinburgh,,Dalry,Edinburgh,Scotland,EH11 2JN,-3.226056,55.93874,,,,,,,,Closed,3,2021,,391
138,Bank of Scotland,BOS,Edinburgh Corstorphine West,Branch,206 St John's Road,,Costorphine,Edinburgh,Scotland,EH12 8SH,-3.292954461,55.94294218,09:30-16:30,09:30-16:30,09:30-16:30,09:30-16:30,09:30-16:30,,35,Open,,,,565
139,Bank of Scotland,BOS,Edinburgh Gyle Centre,Branch,Unit 42 Gyle Avenue,Gyle Shopping Centre,South Gyle,Edinburgh,Scotland,EH12 9JU,-3.3145286,55.9384146,09:00-17:00,09:00-17:00,09:00-17:00,09:00-17:00,09:00-17:00,09:00-15:00,46,Open,,,,1415
140,Bank of Scotland,BOS,Edinburgh Wester Hailes,Branch,18 Westside Plaza,,Wester Hailes,Edinburgh,Scotland,EH14 2SZ,-3.284695779,55.91554177,09:00-17:00,09:00-17:00,09:00-17:00,09:00-17:00,09:00-17:00,,40,Open,,,,21
141,Bank of Scotland,BOS,Currie,Branch,,,Currie,Edinburgh,Scotland,EH14 5NY,-3.305649,55.897127,,,,,,,,Closed,11,2016,,9
142,Bank of Scotland,BOS,Edinburgh Portobello,Branch,153 Portobello High Street,,Portobello,Edinburgh,Scotland,EH15 1AG,-3.114886756,55.95284393,09:30-16:30,09:30-16:30,09:30-16:30,09:30-16:30,09:30-16:30,,35,Closing,10,2024,,101
143,Bank of Scotland,BOS,Edinburgh Cameron Toll,Branch,Unit 15A Cameron Toll,Lady Road,Newington,Edinburgh,Scotland,EH16 5PB,-3.1639466,55.9274567,09:00-17:00,09:00-17:00,09:00-17:00,09:00-17:00,09:00-17:00,09:00-15:00,46,Open,,,,684
144,Bank of Scotland,BOS,Edinburgh Liberton,Branch,1 Liberton DriveEdinburgh,,Liberton,Edinburgh,Scotland,EH16 6NL,-3.166005,55.911585,,,,,,,,Closed,3,2021,,162
145,Bank of Scotland,BOS,Bonnyrigg,Branch,24 High Street,,,Lasswade,Scotland,EH19 2AA,-3.106557709,55.87534717,09:00-15:00,09:00-15:00,09:00-15:00,09:00-15:00,09:00-15:00,,30,Closing,10,2024,,145
146,Bank of Scotland,BOS,"Edinburgh, St Andrews Square",Branch,,,Murrayfield,Edinburgh,Scotland,EH2 2YR,-3.232954,55.943218,,,,,,,,Closed,10,2016,,634
147,Bank of Scotland,BOS,Edinburgh George Street,Branch,75 George Street,,New Town,Edinburgh,Scotland,EH2 3EW,-3.20107703,55.95313822,09:00-17:00,09:00-17:00,09:00-17:00,09:00-17:00,09:00-17:00,09:00-15:00,46,Open,,,,146
148,Bank of Scotland,BOS,Edinburgh Shandwick Place,Branch,20-22 Shandwick Place,,West End,Edinburgh,Scotland,EH2 4RN,-3.209217295,55.9499081,09:00-17:00,09:00-17:00,09:00-17:00,09:00-17:00,09:00-17:00,,40,Closed,7,2022,,522
149,Bank of Scotland,BOS,Loanhead,Branch,95 Clerk StreetLoanhead,,Loanhead,Loanhead,Scotland,EH20 9RE,-3.149266,55.878339,,,,,,,,Closed,3,2021,,50
150,Bank of Scotland,BOS,Musselburgh,Branch,172 High Street,,Musselborough,Musselburgh,Scotland,EH21 7DZ,-3.0522913,55.9421095,09:00-17:00,09:00-17:00,09:00-17:00,09:00-17:00,09:00-17:00,09:00-13:00,44,Open,,,,131
151,Bank of Scotland,BOS,Dalkeith,Branch,47 High Street,,Woodburn,Dalkeith,Scotland,EH22 1JA,-3.071201305,55.89417777,09:00-17:00,09:00-17:00,09:00-17:00,09:00-17:00,09:00-17:00,09:00-13:00,44,Open,,,,53
152,Bank of Scotland,BOS,Gorebridge,Branch,,,,Gorebridge,Scotland,EH23 4BX,-3.047459,55.841531,,,,,,,,Closed,7,2017,,64
153,Bank of Scotland,BOS,Penicuik,Branch,163A John Street,,,Penicuik,Scotland,EH26 8AT,-3.2230912,55.8325971,09:00-15:30,09:00-15:30,09:00-15:30,09:00-15:30,09:00-15:30,,32.5,Open,,,,434
154,Bank of Scotland,BOS,Edinburgh Goldenacre,Branch,,,Inverleith,Edinburgh,Scotland,EH3 5QX,-3.208341,55.970832,,,,,,,,Closed,10,2017,,833
155,Bank of Scotland,BOS,Edinburgh Tollcross,Branch,Princes Exchange3 Earl Grey StreetEdinburgh,,Old Town,Edinburgh,Scotland,EH3 9BN,-3.204843,55.944372,,,,,,,,Closed,4,2021,,178
156,Bank of Scotland,BOS,Gullane,Branch,,,,Gullane,Scotland,EH31 2AR,-2.832845,56.034357,,,,,,,,Closed,10,2017,,257
157,Bank of Scotland,BOS,North Berwick,Branch,23 Westgate,,,North Berwick,Scotland,EH39 4AG,-2.724636089,56.05784075,09:00-15:30,09:00-15:30,09:00-15:30,09:00-15:30,09:00-15:30,,32.5,Closing,2,2025,,448
158,Bank of Scotland,BOS,Edinburgh Comely Bank,Branch,43 Comely Bank,,Craigleith,Edinburgh,Scotland,EH4 1AF,-3.226043175,55.95875407,09:00-17:00,09:00-17:00,09:00-17:00,09:00-17:00,09:00-17:00,09:00-13:00,44,Open,,,,815
159,Bank of Scotland,BOS,"Edinburgh, Stockbridge",Branch,,,Stockbridge,Edinburgh,Scotland,EH4 1LU,-3.209088,55.958334,,,,,,,,Closed,11,2016,,268
160,Bank of Scotland,BOS,Edinburgh Barnton,Branch,564 Queensferry Road,,Cramond,Edinburgh,Scotland,EH4 6AT,-3.306297374,55.96112832,09:30-14:00,,09:30-14:00,,09:30-14:00,,13.5,Closed,7,2022,,49
161,Bank of Scotland,BOS,Haddington,Branch,44 Court Street,,,"Haddington, East Lothian",Scotland,EH41 3NP,-2.7813475,55.955765,09:00-15:30,09:00-15:30,09:00-15:30,09:00-15:30,09:00-15:30,,32.5,Open,,,,32
162,Bank of Scotland,BOS,Dunbar,Branch,95 High Street,,,Dunbar,Scotland,EH42 1ER,-2.51577142,56.002313,09:00-15:30,09:00-15:30,09:00-15:30,09:00-15:30,09:00-15:30,,32.5,Closed,5,2024,,215
163,Bank of Scotland,BOS,Innerleithen,Branch,2 High Street,,,Innerleithen,Scotland,EH44 6HB,-3.062024441,55.61984888,10:00-14:00,,10:00-14:00,,10:00-14:00,,12,Closed,8,2022,,338
164,Bank of Scotland,BOS,Peebles,Branch,70 High Steet,,,Peebles,Scotland,EH45 8AQ,-3.191473791,55.6515532,09:00-15:00,09:00-15:00,09:00-15:00,09:00-15:00,09:00-15:00,,30,Open,,,,266
165,Bank of Scotland,BOS,West Linton,Branch,,,,West Linton,Scotland,EH46 7EE,-3.355428,55.751468,,,,,,,,Closed,7,2017,,60
166,Bank of Scotland,BOS,Bathgate,Branch,50 Hopetoun Street,,Belvedere,Bathgate,Scotland,EH48 4EU,-3.64022119,55.90307463,09:00-17:00,09:00-17:00,09:00-17:00,09:00-17:00,09:00-17:00,,40,Closing,6,2025,,152
167,Bank of Scotland,BOS,Linlithgow,Branch,Regent Centre,Blackness Road,,Linlithgow,Scotland,EH49 7HU,-3.594865,55.977583,09:00-15:00,09:00-15:00,09:00-15:00,09:00-15:00,09:00-15:00,,30,Closing,2,2025,,749
168,Bank of Scotland,BOS,Bo'ness,Branch,22 East Pier Street,,,Bo'ness,Scotland,EH51 9AB,-3.607143,56.017981,,,,,,,,Closed,6,2016,,901
169,Bank of Scotland,BOS,Broxburn,Branch,57 East Main Street,,,"Broxburn, West Lothian",Scotland,EH52 5EE,-3.4689808,55.9346081,09:00-15:00,09:00-15:00,09:00-15:00,09:00-15:00,09:00-15:00,,30,Closed,8,2022,,143
170,Bank of Scotland,BOS,Livingston The Centre Unit 54,Branch,54-55 The Centre,,Kirkton,Livingston,Scotland,EH54 6NB,-3.509493134,55.88372513,09:00-17:00,09:00-17:00,09:00-17:00,09:00-17:00,09:00-17:00,09:00-15:00,46,Closed,3,2021,,117
171,Bank of Scotland,BOS,Edinburgh Leith,Branch,13 Newkirkgate,Leith,Leith,Edinburgh,Scotland,EH6 6AD,-3.1716105,55.9717841,09:00-17:00,09:00-17:00,09:00-17:00,09:00-17:00,09:00-17:00,09:00-15:00,46,Open,,,,120
172,Bank of Scotland,BOS,Edinburgh Piershill,Branch,7 Wolseley Place,,Meadowbank,Edinburgh,Scotland,EH8 7AD,-3.150553,55.954843,,,,,,,,Closed,3,2018,,441
173,Bank of Scotland,BOS,Edinburgh Newington,Branch,51 South Clerk Street,,Newington,Edinburgh,Scotland,EH8 9PP,-3.179791343,55.93991596,09:30-16:30,09:30-16:30,09:30-16:30,09:30-16:30,09:30-16:30,,35,Open,,,,326
174,Bank of Scotland,BOS,Falkirk Howgate,Branch,Unit 15,,Central Falkirk,Falkirk,Scotland,FK1 1HG,-3.786346,55.998617,,,,,,,,Closed,6,2016,,10
175,Bank of Scotland,BOS,Falkirk High Street,Branch,138/140 High Street,,Central Falkirk,Falkirk,Scotland,FK1 1NR,-3.7832006,55.9990892,09:00-17:00,09:00-17:00,09:00-17:00,09:00-17:00,09:00-17:00,09:00-15:00,46,Open,,,,204
176,Bank of Scotland,BOS,Alloa Mar Street,Branch,21 Mar Street,,Bowhouse,Alloa,Scotland,FK10 1HR,-3.7930529,56.115289,09:00-17:00,09:00-17:00,09:00-17:00,09:00-17:00,09:00-17:00,09:00-13:00,44,Open,,,,130
177,Bank of Scotland,BOS,Alva,Branch,148 West Stirling Street,,,Alva,Scotland,FK12 5EN,-3.803669,56.153087,,,,,,,,Closed,4,2018,,552
178,Bank of Scotland,BOS,Dunblane,Branch,63 High Street,,,Dunblane,Scotland,FK15 0EJ,-3.9644667,56.1883103,09:00-15:30,09:00-15:30,,09:00-15:30,09:00-15:30,,26,Closed,7,2022,,966
179,Bank of Scotland,BOS,Callander,Branch,42 Main Street,,,Callander,Scotland,FK17 8BD,-4.215788793,56.2438636,09:30-15:00,09:30-15:00,09:30-15:00,09:30-15:00,09:30-15:00,,27.5,Closing,10,2024,,167
180,Bank of Scotland,BOS,Polmont,Branch,,,Maddiston,Polmont,Scotland,FK2 0TU,-3.714621,55.984031,,,,,,,,Closed,11,2016,,491
181,Bank of Scotland,BOS,Killin,Branch,Main StreetKillin,,,Killin,Scotland,FK21 8UP,-4.318573,56.467039,,,,,,,,Closed,3,2021,,188
182,Bank of Scotland,BOS,Grangemouth La Porte,Branch,24 La Porte Precinct,,,Grangemouth,Scotland,FK3 8AS,-3.7231053,56.0189996,09:00-17:00,09:00-17:00,09:00-17:00,09:00-17:00,09:00-17:00,,40,Open,,,,149
183,Bank of Scotland,BOS,Denny,Branch,7 Glasgow Road,,Denny,Denny,Scotland,FK6 6BB,-3.907138,56.022091,,,,,,,,Closed,2,2018,,175
184,Bank of Scotland,BOS,Stirling Munro Road,Branch,1 Munro Road,,Raploch,Stirling,Scotland,FK7 7SY,-3.916666,56.112625,,,,,,,,Closed,2,2018,,1298
185,Bank of Scotland,BOS,Stirling Port Street,Branch,7/13 Port Street,,Raploch,Stirling,Scotland,FK8 2EJ,-3.9364369,56.1171964,09:00-17:00,09:00-17:00,09:00-17:00,09:00-17:00,09:00-17:00,09:00-15:00,46,Open,,,,36
186,Bank of Scotland,BOS,Stirling Aberfoyle,Branch,Main Street,Aberfoyle,,Aberfoyle,Scotland,FK8 3UG,-4.384434955,56.17880632,,10:00-14:00,,10:00-14:00,,,8,Closed,10,2023,,105
187,Bank of Scotland,BOS,Bridge Of Allan,Branch,45 Henderson Street,,,Bridge Of Allan,Scotland,FK9 4HG,-3.945035,56.154474,,,,,,,,Closed,2,2018,,1850
188,Bank of Scotland,BOS,"Glasgow, Central Station",Branch,,,Central Glasgow,Glasgow,Scotland,G1 3RS,-4.257739,55.860849,,,,,,,,Closed,10,2016,,169
189,Bank of Scotland,BOS,Glasgow Partick,Branch,258/262 Dumbarton Road,,Partick,Glasgow,Scotland,G11 6TU,-4.303869453,55.87096656,09:00-17:00,09:00-17:00,09:00-17:00,09:00-17:00,09:00-17:00,09:00-15:00,46,Open,,,,311
190,Bank of Scotland,BOS,Glasgow Byres Road,Branch,174 Byres Road,,Kelvinside,Glasgow,Scotland,G12 8SW,-4.294084469,55.87457201,09:00-17:00,09:00-17:00,09:00-17:00,09:00-17:00,09:00-17:00,,40,Closed,3,2024,,450
191,Bank of Scotland,BOS,Glasgow Anniesland,Branch,836 Crow Road,,Knightswood,Clydebank,Scotland,G13 1ET,-4.324552088,55.89025257,09:00-17:00,09:00-17:00,09:00-17:00,09:00-17:00,09:00-17:00,09:00-13:00,44,Open,,,,947
192,Bank of Scotland,BOS,Glasgow Scotstoun,Branch,1475 Dumbarton Road,,Scotstoun,Clydebank,Scotland,G14 9XN,-4.34767,55.877653,,,,,,,,Closed,3,2018,,288
193,Bank of Scotland,BOS,Glasgow 54 Sauchiehall Street,Branch,54-62 Sauchiehall Street,,Central Glasgow,Glasgow,Scotland,G2 3AH,-4.25482768,55.86459557,09:00-17:00,09:00-17:00,09:00-17:00,09:00-17:00,09:00-17:00,09:00-15:00,46,Open,,,,88
194,Bank of Scotland,BOS,Glasgow 235 Sauchiehall Street,Branch,,,Central Glasgow,Glasgow,Scotland,G2 3EY,-4.262123,55.865065,,,,,,,,Closed,7,2017,,152
195,Bank of Scotland,BOS,Glasgow Argyle Street,Branch,167-201 Argyle Street,,Central Glasgow,Glasgow,Scotland,G2 8BU,-4.255388465,55.8579967,09:00-17:00,09:00-17:00,09:00-17:00,09:00-17:00,09:00-17:00,09:00-17:00,48,Open,,,,320
196,Bank of Scotland,BOS,Glasgow St Georges Cross,Branch,2 Clarendon Place,,Firhill,Glasgow,Scotland,G20 7PY,-4.267839,55.871236,,,,,,,,Closed,2,2019,,152
197,Bank of Scotland,BOS,Glasgow The Forge,Branch,1195 Duke Street,,Parkhead,Glasgow,Scotland,G31 5NJ,-4.197109112,55.85357754,09:00-17:00,09:00-17:00,09:00-17:00,09:00-17:00,09:00-17:00,09:00-13:00,44,Open,,,,311
198,Bank of Scotland,BOS,Garrowhill,Branch,187 Baillieston Road,,Baillieston,Glasgow,Scotland,G32 0TN,-4.132912435,55.85011304,09:00-15:00,09:00-15:00,09:00-15:00,09:00-15:00,09:00-15:00,,30,Open,,,,894
199,Bank of Scotland,BOS,Glasgow Riddrie,Branch,182 Smithycroft Road,,Carntyre,Glasgow,Scotland,G33 2QL,-4.1874016,55.8694749,09:00-15:00,09:00-15:00,09:00-15:00,09:00-15:00,09:00-15:00,,30,Closed,8,2022,,166
200,Bank of Scotland,BOS,Glasgow Pollokshields,Branch,236 Albert Drive,Pollokshields,Pollockshields,Glasgow,Scotland,G41 2NL,-4.27415912,55.84261059,09:30-16:30,09:30-16:30,09:30-16:30,09:30-16:30,09:30-16:30,,35,Closed,7,2023,,125
201,Bank of Scotland,BOS,Glasgow Shawlands,Branch,56/60 Kilmarnock Road,,Shawlands,Glasgow,Scotland,G41 3NN,-4.283021632,55.82927312,09:00-17:00,09:00-17:00,09:00-17:00,09:00-17:00,09:00-17:00,09:00-13:00,44,Open,,,,137
202,Bank of Scotland,BOS,Glasgow Victoria Road,Branch,464 Victoria Road,,Govanhill,Glasgow,Scotland,G42 8PB,-4.265569967,55.83540478,09:00-17:00,09:00-17:00,09:00-17:00,09:00-17:00,09:00-17:00,09:00-13:00,44,Open,,,,528
203,Bank of Scotland,BOS,Glasgow Mount Florida,Branch,9 Carmunnock Road,,Kings Park,Glasgow,Scotland,G44 4UA,-4.256807,55.82519,,,,,,,,Closed,6,2016,,335
204,Bank of Scotland,BOS,Giffnock,Branch,162A Fenwick Road,,Giffnock,Glasgow,Scotland,G46 6XF,-4.295306,55.802804,,,,,,,,Closed,2,2018,,148
205,Bank of Scotland,BOS,Glasgow Govan,Branch,816 Govan Road,Govan,Govan,Glasgow,Scotland,G51 3UP,-4.311714644,55.86323199,09:00-15:00,09:00-15:00,09:00-15:00,09:00-15:00,09:00-15:00,,30,Closed,1,2024,,100
206,Bank of Scotland,BOS,Glasgow Cardonald,Branch,2210 Paisley Road West,,Cardonald,Glasgow,Scotland,G52 3SJ,-4.358321623,55.84594201,09:00-17:00,09:00-17:00,09:00-17:00,09:00-17:00,09:00-17:00,09:00-13:00,44,Open,,,,92
207,Bank of Scotland,BOS,Glasgow Pollok,Branch,Civic Realm Leisure Centre,27 Cowglen Road,Pollock,Glasgow,Scotland,G53 6EW,-4.344822729,55.82307898,09:00-15:00,09:00-15:00,09:00-15:00,09:00-15:00,09:00-15:00,,30,Closed,7,2024,,928
208,Bank of Scotland,BOS,Glasgow Bearsden,Branch,19 Roman Road,Bearsden,Bearsden,Clydebank,Scotland,G61 2SP,-4.332895877,55.91964927,09:00-15:00,09:00-15:00,09:00-15:00,09:00-15:00,09:00-15:00,,30,Closed,7,2023,,24
209,Bank of Scotland,BOS,Milngavie Station Road,Branch,2 Station Road,,,Milngavie,Scotland,G62 8AA,-4.316952404,55.94172436,09:00-17:00,09:00-17:00,09:00-17:00,09:00-17:00,09:00-17:00,09:00-13:00,44,Open,,,,1107
210,Bank of Scotland,BOS,Balfron,Branch,136 Buchanan StreetBalfron,,,Balfron,Scotland,G63 0TG,-4.336935,56.071703,,,,,,,,Closed,3,2021,,15
211,Bank of Scotland,BOS,Killearn,Branch,2 Main Street,,,Killearn,Scotland,G63 9NH,-4.372461,56.043763,,,,,,,,Closed,6,2016,,116
212,Bank of Scotland,BOS,Bishopbriggs,Branch,191 Kirkintilloch Road,,Bishopbriggs,Glasgow,Scotland,G64 2LS,-4.224554086,55.90563822,09:30-16:30,09:30-16:30,09:30-16:30,09:30-16:30,09:30-16:30,,35,Open,,,,29
213,Bank of Scotland,BOS,Kirkintilloch,Branch,100/102 Cowgate,,Kirkintilloch,Kirkintilloch,Scotland,G66 1JQ,-4.156285043,55.939054,09:30-16:30,09:30-16:30,09:30-16:30,09:30-16:30,09:30-16:30,,35,Open,,,,240
214,Bank of Scotland,BOS,Cumbernauld Town Centre,Branch,Unit 17 Tryst Road,Antonine Shopping Centre,Greenfaulds,Cumbernauld,Scotland,G67 1JW,-3.990669788,55.94717171,09:00-17:00,09:00-17:00,09:00-17:00,09:00-17:00,09:00-17:00,09:00-15:00,46,Open,,,,144
215,Bank of Scotland,BOS,Uddingston,Branch,56 Main Street,,Uddingston,Uddingston,Scotland,G71 7LS,-4.081926883,55.81974755,09:30-16:30,09:30-16:30,09:30-16:30,09:30-16:30,09:30-16:30,,35,Open,,,,89
216,Bank of Scotland,BOS,Bothwell,Branch,14 Main Street,,Bothwell,Uddingston,Scotland,G71 8RF,-4.066606,55.802602,,,,,,,,Closed,6,2016,,97
217,Bank of Scotland,BOS,Rutherglen,Branch,82 Main Street,,Rutherglen,Glasgow,Scotland,G73 2HZ,-4.216273698,55.82813964,09:00-17:00,09:00-17:00,09:00-17:00,09:00-17:00,09:00-17:00,,40,Open,,,,230
218,Bank of Scotland,BOS,Burnside,Branch,289 Stonelaw Road,,Rutherglen,Glasgow,Scotland,G73 2RW,-4.22543,55.824599,,,,,,,,Closed,2,2019,,679
219,Bank of Scotland,BOS,East Kilbride,Branch,41 Princes Mall,,Central East Kilbride,East Kilbride,Scotland,G74 1LS,-4.176571,55.760606,09:00-17:00,09:00-17:00,09:00-17:00,09:00-17:00,09:00-17:00,09:00-15:00,46,Open,,,,78
220,Bank of Scotland,BOS,Glasgow Clarkston,Branch,20 Busby Road,Clarkston,Clarkston,Glasgow,Scotland,G76 7XH,-4.2770746,55.7896963,09:00-15:00,09:00-15:00,09:00-15:00,09:00-15:00,09:00-15:00,,30,Closed,7,2022,,1176
221,Bank of Scotland,BOS,Newton Mearns,Branch,244 Ayr Road,,Newton Mearns,Newton Mearns,Scotland,G77 6AA,-4.333506094,55.77253076,09:00-17:00,09:00-17:00,09:00-17:00,09:00-17:00,09:00-17:00,09:00-13:00,44,Open,,,,1036
222,Bank of Scotland,BOS,Barrhead,Branch,112 Main Street,Barrhead,Barrhead,Barrhead,Scotland,G78 1RD,-4.39147154,55.79990266,09:00-17:00,09:00-17:00,09:00-17:00,09:00-17:00,09:00-17:00,,40,Open,,,,451
223,Bank of Scotland,BOS,Clydebank,Branch,Clyde Shopping Centre,42-44 Sylvania Way,Clydebank,Clydebank,Scotland,G81 2TL,-4.4039117,55.9047757,09:00-17:00,09:00-17:00,09:00-17:00,09:00-17:00,09:00-17:00,09:00-15:00,46,Open,,,,382
224,Bank of Scotland,BOS,Dalmuir,Branch,780 Dumbarton Road,,Dalmuir,Clydebank,Scotland,G81 4BY,-4.430372,55.911846,,,,,,,,Closed,3,2018,,40
225,Bank of Scotland,BOS,Dumbarton High Street,Branch,94/102 High Street,,Dumbarton,Dumbarton,Scotland,G82 1PQ,-4.571744551,55.94364531,09:00-17:00,09:00-17:00,09:00-17:00,09:00-17:00,09:00-17:00,09:00-13:00,44,Open,,,,37
226,Bank of Scotland,BOS,Alexandria,Branch,133 Main Street,,,Alexandria,Scotland,G83 0NX,-4.581468185,55.98699273,09:00-17:00,09:00-17:00,09:00-17:00,09:00-17:00,09:00-17:00,,40,Open,,,,100
227,Bank of Scotland,BOS,Kilcreggan,Branch,Shore Road,Kilcreggan,,Kilcreggan,Scotland,G84 0JH,-4.820551,55.985093,,10:00-14:00,,10:00-14:00,,,8,Closed,8,2024,,65
228,Bank of Scotland,BOS,Helensburgh,Branch,26 Colquhoun Square,,,Helensburgh,Scotland,G84 8AD,-4.734875295,56.00481195,09:00-15:30,09:00-15:30,09:00-15:30,09:00-15:30,09:00-14:00,,31,Open,,,,192
229,Bank of Scotland,BOS,Stornoway,Branch,47 Cromwell Street,,,Stornoway,Scotland,HS1 2DD,-6.388362323,58.20935258,09:30-15:30,09:30-15:30,09:30-15:30,09:30-15:30,09:30-15:30,,30,Open,,,,135
230,Bank of Scotland,BOS,Tarbert Isle Of Harris,Branch,Main Street,,,"Tarbert, Eilean Siar",Scotland,HS3 3DJ,-6.799455729,57.8978157,10:00-14:00,10:00-14:00,,10:00-14:00,,,12,Closed,2,2024,,218
231,Bank of Scotland,BOS,Lochmaddy,Branch,Lochmaddy,,,Lochmaddy,Scotland,HS6 5AA,-7.160627134,57.59917483,10:00-14:30,10:00-14:30,10:00-14:30,10:00-14:30,10:00-14:30,,22.5,Closed,2,2024,,349
232,Bank of Scotland,BOS,Isle Of Benbecula,Branch,Balivanich,,,Baile a' Mhanaich,Scotland,HS7 5LA,-7.377969,57.4731275,10:00-14:00,10:00-14:00,10:00-14:00,10:00-14:00,10:00-14:00,,20,Open,,,,628
233,Bank of Scotland,BOS,Inverness Longman,Branch,35D Harbour Road,Longman South,Central Inverness,Inverness,Scotland,IV1 1UA,-4.21392114,57.48439026,09:00-15:30,09:00-15:30,09:00-15:30,09:00-15:30,09:00-15:30,,32.5,Open,,,,915
234,Bank of Scotland,BOS,Fortrose,Branch,,,,Fortrose,Scotland,IV10 8SX,-4.13348,57.580743,,,,,,,,Closed,9,2017,,2679
235,Bank of Scotland,BOS,Nairn,Branch,73 High Street,,,Nairn,Scotland,IV12 4BS,-3.8678319,57.5849568,09:00-15:00,09:00-15:00,09:00-15:00,09:00-15:00,09:00-15:00,,30,Open,,,,317
236,Bank of Scotland,BOS,Dingwall,Branch,High Street,,,Dingwall,Scotland,IV15 9HL,-4.427033144,57.59556486,09:30-15:30,09:30-15:30,09:30-15:30,09:30-15:30,09:30-15:30,,30,Open,,,,214
237,Bank of Scotland,BOS,Alness,Branch,9/13 High Street,,,Alness,Scotland,IV17 0QB,-4.257206949,57.69626402,09:30-14:30,09:30-14:30,09:30-14:30,09:30-14:30,09:30-14:30,,25,Closed,7,2022,,262
238,Bank of Scotland,BOS,Tain,Branch,Tower Street,,,Tain,Scotland,IV19 1DY,-4.055564974,57.81260813,09:30-14:30,09:30-14:30,09:30-14:30,09:30-14:30,09:30-14:30,,25,Open,,,,139
239,Bank of Scotland,BOS,Inverness City,Branch,2-6 Eastgate,,Central Inverness,Inverness,Scotland,IV2 3NA,-4.222569558,57.47804582,09:00-17:00,09:00-17:00,09:00-17:00,09:00-17:00,09:00-17:00,09:00-15:00,46,Open,,,,271
240,Bank of Scotland,BOS,Gairloch,Branch,Bank Brae,Gairloch,,"Charlestown, Highland",Scotland,IV21 2BE,-5.680882039,57.71448708,10:00-14:00,10:00-14:00,,10:00-14:00,10:00-14:00,,16,Open,,,,266
241,Bank of Scotland,BOS,Bonar Bridge,Branch,,,,Bonar Bridge,Scotland,IV24 3EB,-4.344471,57.889848,,,,,,,,Closed,9,2017,,539
242,Bank of Scotland,BOS,Dornoch,Branch,,,,Dornoch,Scotland,IV25 3ST,-4.03157,57.880388,,,,,,,,Closed,9,2017,,164
243,Bank of Scotland,BOS,Ullapool,Branch,30 West Argyle Street,,,Ullapool,Scotland,IV26 2TY,-5.16073554,57.89589135,10:00-14:00,,10:00-14:00,,10:00-14:00,,12,Closed,10,2023,,252
244,Bank of Scotland,BOS,Lairg,Branch,,,Lairg,Lairg,Scotland,IV27 4AR,-4.400068,58.023713,,,,,,,,Closed,9,2017,,440
245,Bank of Scotland,BOS,Elgin High Street,Branch,90 High Street,,Newton,Elgin,Scotland,IV30 1BJ,-3.314616474,57.64856837,09:00-17:00,09:00-17:00,09:00-17:00,09:00-17:00,09:00-17:00,09:00-15:00,46,Open,,,,151
246,Bank of Scotland,BOS,Lossiemouth,Branch,12 Queen Street,,,Lossiemouth,Scotland,IV31 6NU,-3.280989,57.722243,,,,,,,,Closed,6,2019,,258
247,Bank of Scotland,BOS,Fochabers,Branch,,,,Fochabers,Scotland,IV32 7DH,-3.099081,57.614828,,,,,,,,Closed,11,2016,,280
248,Bank of Scotland,BOS,Forres,Branch,102 High Street,,,Forres,Scotland,IV36 1PA,-3.6136171,57.6095917,09:00-15:00,09:00-15:00,09:00-15:00,09:00-15:00,09:00-15:00,,30,Closed,7,2022,,209
249,Bank of Scotland,BOS,Beauly,Branch,,,,Beauly,Scotland,IV4 7BS,-4.460788,57.483194,,,,,,,,Closed,9,2017,,254
250,Bank of Scotland,BOS,Kyle,Branch,Main Street,,,Kyle of Lochalsh,Scotland,IV40 8AB,-5.7162183,57.2810596,10:00-15:00,,10:00-15:00,,10:00-15:00,,15,Closing,1,2025,,65
251,Bank of Scotland,BOS,Broadford,Branch,,,,Broadford,Scotland,IV49 9AB,-5.910982,57.241415,,,,,,,,Closed,11,2016,,304
252,Bank of Scotland,BOS,Portree,Branch,Somerled Square,,,Portree,Scotland,IV51 9EH,-6.1950164,57.4132956,10:00-14:00,10:00-15:00,10:00-14:00,10:00-15:00,10:00-14:00,,22,Open,,,,10793
253,Bank of Scotland,BOS,Lochcarron,Branch,,,,Lochcarron,Scotland,IV54 8YD,-5.497258,57.398815,,,,,,,,Closed,11,2016,,65
254,Bank of Scotland,BOS,Drumnadrochit,Branch,,,,Lewiston,Scotland,IV63 6TU,-4.479635,57.337573,,,,,,,,Closed,11,2016,,1072
255,Bank of Scotland,BOS,Kilmarnock,Branch,30/34 King Street,,Bonnyton,Kilmarnock,Scotland,KA1 1NP,-4.4964873,55.6093574,09:00-17:00,09:00-17:00,09:00-17:00,09:00-17:00,09:00-17:00,09:00-15:00,46,Open,,,,30
256,Bank of Scotland,BOS,Troon,Branch,8 Templehill,,Troon,Troon,Scotland,KA10 6BE,-4.6643624,55.5440043,09:00-15:00,09:00-15:00,09:00-15:00,09:00-15:00,09:00-15:00,,30,Closed,9,2022,,194
257,Bank of Scotland,BOS,Irvine High Street,Branch,167 High Street,,Irvine,Irvine,Scotland,KA12 8AF,-4.668414931,55.61589446,09:00-17:00,09:00-17:00,09:00-17:00,09:00-17:00,09:00-17:00,09:00-13:00,44,Open,,,,34
258,Bank of Scotland,BOS,Beith,Branch,,,,Beith,Scotland,KA15 1AQ,-4.634993,55.75005,,,,,,,,Closed,7,2017,,119
259,Bank of Scotland,BOS,Cumnock,Branch,43/45 Townhead Street,,,Cumnock,Scotland,KA18 1LF,-4.262983981,55.45441098,09:00-15:00,09:00-15:00,09:00-15:00,09:00-15:00,09:00-15:00,,30,Closed,5,2024,,257
260,Bank of Scotland,BOS,Maybole,Branch,67 High Street,,,Maybole,Scotland,KA19 7AB,-4.681616,55.354087,,,,,,,,Closed,6,2016,,120
261,Bank of Scotland,BOS,Saltcoats,Branch,57 Dockhead Street,,Saltcoats,Saltcoats,Scotland,KA21 5EY,-4.787296793,55.63308503,09:30-16:30,09:30-16:30,09:30-16:30,09:30-16:30,09:30-16:30,,35,Open,,,,113
262,Bank of Scotland,BOS,Girvan,Branch,17 Dalrymple Street,,,Girvan,Scotland,KA26 9EU,-4.855295337,55.24284026,09:30-15:00,09:30-15:00,09:30-15:00,09:30-15:00,09:30-15:00,,27.5,Closed,5,2024,,21
263,Bank of Scotland,BOS,Brodick,Branch,Brodick,,,Brodick,Scotland,KA27 8AB,-5.150441449,55.57742855,09:00-15:00,09:00-15:00,09:00-15:00,09:00-15:00,09:00-15:00,,30,Closed,1,2024,,5174
264,Bank of Scotland,BOS,Millport,Branch,42 Stuart Street,Millport,,Millport,Scotland,KA28 0AG,-4.931142361,55.75237649,,10:00-14:00,,10:00-14:00,,,8,Closed,2,2024,,204
265,Bank of Scotland,BOS,Stewarton,Branch,,,,"Stewarton, Ayrshire",Scotland,KA3 5AA,-4.514261,55.680999,,,,,,,,Closed,7,2017,,173
266,Bank of Scotland,BOS,Largs,Branch,32 Main Street,,,Largs,Scotland,KA30 8AD,-4.869638988,55.7941545,09:00-15:30,09:00-15:30,09:00-15:30,09:00-15:30,09:00-15:30,,32.5,Open,,,,116
267,Bank of Scotland,BOS,Galston,Branch,2 Brewland StreetGalston,,,Galston,Scotland,KA4 8AQ,-4.381946,55.600257,,,,,,,,Closed,3,2021,,175
268,Bank of Scotland,BOS,Ayr High Street,Branch,123 High Street,,Seafield,Ayr,Scotland,KA7 1QP,-4.630241834,55.46243267,09:00-17:00,09:00-17:00,09:00-17:00,09:00-17:00,09:00-17:00,09:00-15:00,46,Open,,,,151
269,Bank of Scotland,BOS,Prestwick,Branch,The Cross,,,"Prestwick, Ayrshire",Scotland,KA9 1AJ,-4.610698,55.501809,,,,,,,,Closed,3,2018,,372
270,Bank of Scotland,BOS,Wick,Branch,18 Bridge Street,,,"Wick, Highland",Scotland,KW1 4NG,-3.09309692,58.4421655,09:30-15:00,09:30-15:00,09:30-15:00,09:30-15:00,09:30-15:00,,27.5,Closing,6,2025,,91
271,Bank of Scotland,BOS,Golspie,Branch,Main Street,Golspie,,Golspie,Scotland,KW10 6RJ,-3.971141038,57.97521846,09:30-14:30,09:30-14:30,09:30-14:30,09:30-14:30,09:30-14:30,,25,Closing,2,2025,,365
272,Bank of Scotland,BOS,Kirkwall,Branch,56 Albert Street,,,Kirkwall,Scotland,KW15 1HJ,-2.959423922,58.98249569,09:30-15:00,09:30-15:00,10:00-14:00,09:30-15:00,10:00-14:00,,24.5,Open,,,,100
273,Bank of Scotland,BOS,Stromness,Branch,99 Victoria Street,,,Stromness,Scotland,KW16 3BU,-3.299497994,58.96178402,,,10:00-14:00,,10:00-14:00,,8,Closed,8,2022,,133
274,Bank of Scotland,BOS,Helmsdale,Branch,,,,Helmsdale,Scotland,KW8 6JX,-3.64963,58.115758,,,,,,,,Closed,9,2017,,253
275,Bank of Scotland,BOS,Kirkcaldy High Street,Branch,163 High Street,,Linktown,Kirkcaldy,Scotland,KY1 1LR,-3.1589115,56.1105994,09:00-17:00,09:00-17:00,09:00-17:00,09:00-17:00,09:00-17:00,09:00-15:00,46,Open,,,,129
276,Bank of Scotland,BOS,Kirkcaldy Mitchelston,Branch,Carberry Road,Mitchelson Industrial Estate,Sinclairtown,Kirkcaldy,Scotland,KY1 3PA,-3.147293,56.13510349,09:00-17:00,09:00-17:00,09:00-17:00,09:00-17:00,09:00-17:00,,40,Closing,1,2025,,956
277,Bank of Scotland,BOS,Dunfermline Bothwell,Branch,1 Bothwell Street,,Abbeyview,Dunfermline,Scotland,KY11 3AG,-3.455108406,56.06583001,09:00-17:00,09:00-17:00,09:00-17:00,09:00-17:00,09:00-17:00,,40,Closing,1,2025,,705
278,Bank of Scotland,BOS,Dunfermline East Port,Branch,11-13 East Port,,East Baldridge,Dunfermline,Scotland,KY12 7JY,-3.458245871,56.07153547,09:00-17:00,09:00-17:00,09:00-17:00,09:00-17:00,09:00-17:00,09:00-15:00,46,Open,,,,141
279,Bank of Scotland,BOS,Kinross,Branch,2 High StreetKinross,,,Kinross,Scotland,KY13 8AW,-3.422086,56.207145,,,,,,,,Closed,3,2021,,272
280,Bank of Scotland,BOS,Cupar,Branch,The Cross,,,Cupar,Scotland,KY15 4BP,-3.011630422,56.31955179,09:00-15:00,09:00-15:00,09:00-15:00,09:00-15:00,09:00-15:00,,30,Closed,5,2024,,85
281,Bank of Scotland,BOS,Falkland,Branch,High Street,Falkland,,Falkland,Scotland,KY15 7BZ,-3.2070167,56.2532672,,10:00-14:00,,10:00-14:00,,,8,Closed,12,2023,,64
282,Bank of Scotland,BOS,St Andrews Queens,Branch,1 Queen's Gardens,,,St Andrews,Scotland,KY16 9TD,-2.795777842,56.33915287,09:00-15:00,09:00-15:00,09:00-15:00,09:00-15:00,09:00-15:00,,30,Open,,,,17
283,Bank of Scotland,BOS,Kinghorn,Branch,,,,Kinghorn,Scotland,KY3 9UE,-3.175661,56.069753,,,,,,,,Closed,11,2016,,83
284,Bank of Scotland,BOS,Cowdenbeath,Branch,349/351 High Street,,Cowdenbeath,Cowdenbeath,Scotland,KY4 9QJ,-3.342697947,56.10941564,09:00-15:30,09:00-15:30,09:00-15:30,09:00-15:30,09:00-15:30,,32.5,Closing,6,2025,,44
285,Bank of Scotland,BOS,Lochgelly,Branch,67 Bank Street,,,Lochgelly,Scotland,KY5 9QN,-3.309496,56.128707,,,,,,,,Closed,2,2018,,329
286,Bank of Scotland,BOS,Glenrothes,Branch,9 Falkland Gate,,Central Glenrothes,Glenrothes,Scotland,KY7 5LW,-3.172038,56.19603,09:00-17:00,09:00-17:00,09:00-17:00,09:00-17:00,09:00-17:00,09:00-15:00,46,Open,,,,111
287,Bank of Scotland,BOS,Leven High Street,Branch,60 High Street,,,"Leven, Fife",Scotland,KY8 4NA,-2.9971059,56.1949777,09:00-15:30,09:00-15:30,09:00-15:30,09:00-15:30,09:00-15:30,,32.5,Closing,5,2025,,255
288,Bank of Scotland,BOS,Motherwell,Branch,32 Brandon Parade South,,North Lodge,Motherwell,Scotland,ML1 1RB,-3.9910413,55.7896791,09:00-17:00,09:00-17:00,09:00-17:00,09:00-17:00,09:00-17:00,09:00-13:00,44,Open,,,,1380
289,Bank of Scotland,BOS,Strathaven,Branch,13 Common Green,,,Strathaven,Scotland,ML10 6AQ,-4.065787655,55.67630906,09:00-15:30,09:00-15:30,09:00-15:30,09:00-15:30,09:00-15:30,,32.5,Closing,12,2024,,732
290,Bank of Scotland,BOS,Lesmahagow,Branch,9 Abbeygreen,,,Lesmahagow,Scotland,ML11 0EQ,-3.886025,55.6395633,09:30-13:30,,09:30-13:30,,09:30-13:30,,12,Closed,8,2024,,765
291,Bank of Scotland,BOS,Lanark Bloomgate,Branch,23 Bloomgate,,,Lanark,Scotland,ML11 9EZ,-3.7820345,55.673775,09:00-15:00,09:00-15:00,09:00-15:00,09:00-15:00,09:00-15:00,,30,Closed,8,2024,,487
292,Bank of Scotland,BOS,Wishaw Main Street,Branch,27-29 Main Street,,Cambusnethan,Wishaw,Scotland,ML2 7AF,-3.92032063,55.77379004,09:00-17:00,09:00-17:00,09:00-17:00,09:00-17:00,09:00-17:00,09:00-13:00,44,Open,,,,243
293,Bank of Scotland,BOS,Hamilton,Branch,9 Brandon Street,,Central Hamilton,Hamilton,Scotland,ML3 6BZ,-4.037726517,55.77387095,09:00-17:00,09:00-17:00,09:00-17:00,09:00-17:00,09:00-17:00,09:00-13:00,44,Open,,,,858
294,Bank of Scotland,BOS,Bellshill,Branch,207 Main Street,,Bellshill,Bellshill,Scotland,ML4 1AL,-4.023752075,55.81900278,09:30-16:30,09:30-16:30,09:30-16:30,09:30-16:30,09:30-16:30,,35,Open,,,,123
295,Bank of Scotland,BOS,Coatbridge,Branch,The Quadrant Centre,Main Street,Cliftonville,Coatbridge,Scotland,ML5 3EG,-4.024253,55.862214,09:00-17:00,09:00-17:00,09:00-17:00,09:00-17:00,09:00-17:00,09:00-13:00,44,Open,,,,53
296,Bank of Scotland,BOS,Airdrie,Branch,40 South Bridge Street,,Gartlea,Airdrie,Scotland,ML6 6JA,-3.982017255,55.8676862,09:00-17:00,09:00-17:00,09:00-17:00,09:00-17:00,09:00-17:00,09:00-13:00,44,Open,,,,103
297,Bank of Scotland,BOS,Shotts,Branch,225 Station Road,,,Shotts,Scotland,ML7 4AW,-3.806549732,55.81935274,09:00-15:00,09:00-15:00,09:00-15:00,12:00-15:00,09:00-15:00,,27,Closed,8,2022,,212
298,Bank of Scotland,BOS,Carluke,Branch,3 Kirkton Street,,,Carluke,Scotland,ML8 4AB,-3.839900267,55.73415558,09:00-15:00,09:00-15:00,09:00-15:00,09:00-15:00,09:00-15:00,,30,Closed,6,2022,,114
299,Bank of Scotland,BOS,Larkhall,Branch,39 Union Street,,,Larkhall,Scotland,ML9 1DT,-3.974078721,55.74050731,09:00-17:00,09:00-17:00,09:00-17:00,09:00-17:00,09:00-17:00,,40,Open,,,,265
300,Bank of Scotland,BOS,Stonehouse,Branch,17 Trongate,,,"Stonehouse, Lanarkshire",Scotland,ML9 3LH,-3.981885,55.698714,,,,,,,,Closed,2,2019,,4422
301,Bank of Scotland,BOS,Wooler,Branch,,,,Wooler,North East,NE71 6LQ,-2.014743,55.545474,,,,,,,,Closed,10,2017,,196
302,Bank of Scotland,BOS,Paisley The Cross,Branch,The Cross,Gilmour Street,Central Paisley,Paisley,Scotland,PA1 1DD,-4.423949712,55.8458395,09:00-17:00,09:00-17:00,09:00-17:00,09:00-17:00,09:00-17:00,09:00-15:00,46,Open,,,,98
303,Bank of Scotland,BOS,Bridge Of Weir,Branch,Main Street,,,Bridge Of Weir,Scotland,PA11 3ED,-4.578121828,55.85682009,10:00-15:00,,10:00-15:00,,10:00-15:00,,15,Closed,7,2024,,114
304,Bank of Scotland,BOS,Port Glasgow,Branch,26 John Wood Street,,,Port Glasgow,Scotland,PA14 5HX,-4.688957646,55.93363818,09:00-15:00,09:00-15:00,09:00-15:00,09:00-15:00,09:00-15:00,,30,Closed,9,2024,,47
305,Bank of Scotland,BOS,Greenock,Branch,64/66 West Blackhall Street,,Greenock,Greenock,Scotland,PA15 1XG,-4.761357571,55.95073911,09:00-17:00,09:00-17:00,09:00-17:00,09:00-17:00,09:00-17:00,09:00-13:00,44,Open,,,,108
306,Bank of Scotland,BOS,Gourock,Branch,19 Kempock Street,,Gourock,Greenock,Scotland,PA19 1NB,-4.818907,55.961745,,,,,,,,Closed,6,2016,,166
307,Bank of Scotland,BOS,Paisley South,Branch,58 Neilston Road,,Hawkhead,Paisley,Scotland,PA2 6NE,-4.423607,55.834963,,,,,,,,Closed,2,2019,,41
308,Bank of Scotland,BOS,Rothesay,Branch,36/42 Montague Street,,,Rothesay,Scotland,PA20 0BT,-5.054997766,55.83749363,09:00-15:00,09:00-15:00,09:00-15:00,09:00-15:00,09:00-15:00,,30,Closing,6,2025,,194
309,Bank of Scotland,BOS,Dunoon,Branch,78 Argyll Street,,Dunoon,Dunoon,Scotland,PA23 7NH,-4.9251449,55.9486795,09:00-14:00,09:00-14:00,09:00-14:00,09:00-14:00,09:00-14:00,,25,Closed,12,2023,,625
310,Bank of Scotland,BOS,Campbeltown,Branch,9 Longrow South,,,"Campbeltown, Argyll & Bute",Scotland,PA28 6AL,-5.605611513,55.42426725,09:30-15:00,09:30-15:00,09:30-15:00,09:30-15:00,09:30-15:00,,27.5,Closing,10,2024,,392
311,Bank of Scotland,BOS,Argyll Tarbert,Branch,Harbour Street,Tarbert,,"Tarbert, Argyll & Bute",Scotland,PA29 6TZ,-5.415204907,55.863216,09:30-15:00,,09:30-15:00,,09:30-15:00,,16.5,Closed,4,2024,,245
312,Bank of Scotland,BOS,Lochgilphead,Branch,Poltalloch Street,,,Lochgilphead,Scotland,PA31 8LW,-5.436521,56.037071,09:30-15:00,09:30-15:00,09:30-15:00,09:30-15:00,09:30-15:00,,27.5,Open,,,,313
313,Bank of Scotland,BOS,Inveraray,Branch,,,,Inveraray,Scotland,PA32 8TZ,-5.072833,56.229874,,,,,,,,Closed,11,2016,,118
314,Bank of Scotland,BOS,Oban Station Road,Branch,Station Road,,,Oban,Scotland,PA34 4LL,-5.472756708,56.41259781,09:00-15:30,09:00-15:30,09:00-15:30,09:00-15:30,09:00-15:30,,32.5,Open,,,,292
315,Bank of Scotland,BOS,Renfrew,Branch,1 High Street,,,Renfrew,Scotland,PA4 8QJ,-4.386490596,55.87898226,09:30-16:30,09:30-16:30,09:30-16:30,09:30-16:30,09:30-16:30,,35,Closed,7,2024,,165
316,Bank of Scotland,BOS,Bowmore,Branch,Shore Street,,,Bowmore,Scotland,PA43 7LB,-6.285287092,55.75750904,09:30-15:00,09:30-15:00,09:30-15:00,09:30-15:00,09:30-15:00,,27.5,Closed,5,2024,,46
317,Bank of Scotland,BOS,Johnstone,Branch,56 High Street,,Johnstone,Johnstone,Scotland,PA5 8AL,-4.512766947,55.83697136,09:00-17:00,09:00-17:00,09:00-17:00,09:00-17:00,09:00-17:00,09:00-13:00,44,Open,,,,282
318,Bank of Scotland,BOS,Bishopton,Branch,,,,"Bishopton, Renfrewshire",Scotland,PA7 5AJ,-4.498138,55.902562,,,,,,,,Closed,11,2016,,98
319,Bank of Scotland,BOS,Erskine,Branch,8 Bridgewater Shopping Centre,,Erskine,Erskine,Scotland,PA8 7AA,-4.4484737,55.9036366,09:00-17:00,09:00-17:00,09:00-17:00,09:00-17:00,09:00-17:00,,40,Open,,,,456
320,Bank of Scotland,BOS,Perth,Branch,10/16 King Edward Street,,North Muirton,Perth,Scotland,PH1 5UT,-3.429691799,56.39619406,09:00-17:00,09:00-17:00,09:00-17:00,09:00-17:00,09:00-17:00,09:00-15:00,46,Open,,,,52
321,Bank of Scotland,BOS,Blairgowrie,Branch,51 High Street,,Blairgowrie,Blairgowrie,Scotland,PH10 6DA,-3.340418201,56.59191155,09:30-15:00,09:30-15:00,09:30-15:00,09:30-15:00,09:30-15:00,,27.5,Open,,,,129
322,Bank of Scotland,BOS,Coupar Angus,Branch,,,,Coupar Angus,Scotland,PH13 9AE,-3.266163,56.546495,,,,,,,,Closed,11,2016,,388
323,Bank of Scotland,BOS,Pitlochry,Branch,76 Atholl Road,,,Pitlochry,Scotland,PH16 5BW,-3.733727884,56.70304482,09:30-15:00,09:30-15:00,,09:30-15:00,09:30-15:00,,22,Open,,,,82
324,Bank of Scotland,BOS,Scone,Branch,,,,Scone,Scotland,PH2 6JJ,-3.399857,56.418893,,,,,,,,Closed,11,2016,,160
325,Bank of Scotland,BOS,"Perth, West End",Branch,,,North Muirton,Perth,Scotland,PH2 8NY,-3.433439,56.395391,,,,,,,,Closed,11,2016,,245
326,Bank of Scotland,BOS,Kingussie,Branch,,,,Kingussie,Scotland,PH21 1HS,-4.052279,57.080259,,,,,,,,Closed,9,2017,,45
327,Bank of Scotland,BOS,Aviemore,Branch,Main Road,,,Aviemore,Scotland,PH22 1RH,-3.8291443,57.1899523,10:00-15:00,10:00-15:00,10:00-15:00,10:00-15:00,10:00-15:00,,25,Closed,5,2024,,228
328,Bank of Scotland,BOS,Grantown On Spey,Branch,1 The SquareGrantown-on-Spey,,,Grantown-on-Spey,Scotland,PH26 3HG,-3.607426,57.33203,,,,,,,,Closed,3,2021,,207
329,Bank of Scotland,BOS,Auchterarder,Branch,127 High StreetAuchterarder,,,Auchterarder,Scotland,PH3 1AA,-3.707642,56.296104,,,,,,,,Closed,3,2021,,118
330,Bank of Scotland,BOS,Fort Augustus,Branch,Station Road,,,Fort Augustus,Scotland,PH32 4AZ,-4.6838887,57.1440186,,10:00-14:00,,10:00-14:00,,,8,Closed,10,2023,,257
331,Bank of Scotland,BOS,Fort William,Branch,62 High Street,,,Fort William,Scotland,PH33 6AE,-5.112195234,56.81718615,09:00-15:30,09:00-15:30,09:00-15:30,09:00-15:30,09:00-15:30,,32.5,Open,,,,280
332,Bank of Scotland,BOS,Mallaig,Branch,Main Street,,,Mallaig,Scotland,PH41 4PZ,-5.829176038,57.00562235,10:00-14:00,10:00-14:00,10:00-14:00,10:00-14:00,10:00-14:00,,20,Closing,10,2024,,31
333,Bank of Scotland,BOS,Crieff,Branch,1 Galvelmore Street,,,Crieff,Scotland,PH7 4DN,-3.843380383,56.37343764,09:30-15:00,,09:30-15:00,,09:30-15:00,,16.5,Closed,5,2024,,227
334,Bank of Scotland,BOS,Dunkeld,Branch,High Street,,,Dunkeld,Scotland,PH8 0AL,-3.585955493,56.56547534,09:30-13:30,,09:30-13:30,,09:30-13:30,,12,Closed,12,2023,,92
335,Bank of Scotland,BOS,Galashiels,Branch,3 Channel Street,,,Galashiels,Scotland,TD1 1BE,-2.808936317,55.61730789,09:00-17:00,09:00-17:00,09:00-17:00,09:00-17:00,09:00-17:00,09:00-13:00,44,Open,,,,80
336,Bank of Scotland,BOS,Duns,Branch,10 Market Square,,,Duns,Scotland,TD11 3ED,-2.343024524,55.77799973,09:30-15:00,,09:30-15:00,,09:30-15:00,,16.5,Closed,10,2023,,81
337,Bank of Scotland,BOS,Coldstream,Branch,,,,"Coldstream, Scottish Borders",Scotland,TD12 4AQ,-2.250564,55.651908,,,,,,,,Closed,10,2017,,74
338,Bank of Scotland,BOS,Eyemouth,Branch,Manse Road,,,Eyemouth,Scotland,TD14 5JE,-2.088682621,55.87140768,09:00-15:00,09:00-15:00,09:00-15:00,09:00-15:00,09:00-15:00,,30,Closed,10,2023,,580
339,Bank of Scotland,BOS,Berwick-Upon-Tweed,Branch,61 Hide Hill,,Berwick-upon-Tweed,Berwick-upon-Tweed,North East,TD15 1EN,-2.002800049,55.76786662,09:00-15:30,09:00-15:30,09:00-15:30,09:00-15:30,09:00-15:30,09:00-13:00,36.5,Open,,,,696
340,Bank of Scotland,BOS,Lauder,Branch,,,,Lauder,Scotland,TD2 6TB,-2.747883,55.719181,,,,,,,,Closed,10,2017,,99
341,Bank of Scotland,BOS,Kelso,Branch,8/9 The Square,,,Kelso,Scotland,TD5 7HQ,-2.4337647,55.5981334,09:00-15:00,09:00-15:00,09:00-15:00,09:00-15:00,09:00-15:00,,30,Open,,,,58
342,Bank of Scotland,BOS,Newtown St Boswells,Branch,,,,Newtown St Boswells,Scotland,TD6 0PG,-2.669314,55.57611,,,,,,,,Closed,10,2017,,333
343,Bank of Scotland,BOS,Melrose,Branch,,,,Melrose,Scotland,TD6 9PH,-2.719351,55.597599,,,,,,,,Closed,10,2016,,212
344,Bank of Scotland,BOS,Selkirk,Branch,Market Place,,,Selkirk,Scotland,TD7 4BX,-2.842186187,55.54717645,10:00-14:00,10:00-14:00,10:00-14:00,10:00-14:00,10:00-14:00,,20,Closed,8,2022,,31
345,Bank of Scotland,BOS,Jedburgh,Branch,40 High Street,,,Jedburgh,Scotland,TD8 6DQ,-2.55371137,55.47928709,10:00-14:00,,10:00-14:00,,10:00-14:00,,12,Closed,5,2024,,198
346,Bank of Scotland,BOS,Newcastleton,Branch,Douglas Square,,,Newcastleton,Scotland,TD9 0QD,-2.8134314,55.1792607,,10:00-14:00,,10:00-14:00,,,8,Closed,10,2023,,170
347,Bank of Scotland,BOS,Hawick,Branch,7 High Street,,,Hawick,Scotland,TD9 9BZ,-2.788145639,55.42179669,09:00-15:30,09:00-15:30,09:00-15:30,09:00-15:30,09:00-15:30,,32.5,Open,,,,79
348,Bank of Scotland,BOS,Lerwick,Branch,117 Commercial Street,,,Lerwick,Scotland,ZE1 0DL,-1.143467999,60.15326601,09:30-16:30,09:30-16:30,09:30-16:30,09:30-16:30,09:30-16:30,,35,Open,,,,30
349,Barclays,BB,Branch - Aberdeen,Branch,163-165 Union,Street,Central Aberdeen,Aberdeen,Scotland,AB11 6SL,-2.1019826,57.1454538,10:00-16:00,10:00-16:00,10:00-16:00,10:00-16:00,10:00-16:00,,30,Open,,,,354
350,Barclays,BB,Branch - St Albans,Branch,Lockey House,,Bernards Heath,St Albans,Eastern,AL1 3LP,-0.3370724,51.7535409,09:00-16:00,09:00-16:00,10:00-16:00,09:00-16:00,09:00-16:00,09:00-14:00,39,Open,,,,87
351,Barclays,BB,,Branch,86,Town Centre,Central Hatfield,"Hatfield, Hertfordshire",Eastern,AL10 0JP,-0.2263801,51.7632589,09:00-14:00,09:00-14:00,10:00-14:00,09:00-14:00,09:00-14:00,,24,Closed,8,2021,,108
352,Barclays,BB,Branch - Harpenden,Branch,16,High Street,Harpenden,Harpenden,Eastern,AL5 2TD,-0.3557131,51.8151475,09:00-14:00,,10:00-14:00,,09:00-14:00,09:00-12:00,17,Closed,9,2023,,146
353,Barclays,BB,Old Welwyn,Branch,1 Church Street,,,Welwyn,Eastern,AL6 9LL,-0.214776,51.831099,,,,,,,,Closed,3,2019,,1839
354,Barclays,BB,Branch - Welwyn Garden City,Branch,Unit 12,The Howards Centre,Welwyn Garden City,Welwyn Garden City,Eastern,AL8 6HA,-0.2045717,51.801207,09:00-16:00,09:00-16:00,10:00-16:00,09:00-16:00,09:00-16:00,09:00-13:00,38,Open,,,,343
355,Barclays,BB,Branch - Birmingham Jewellery Quarter,Branch,35,Frederick Street,Central Birmingham,Birmingham,West Midlands,B1 3HH,-1.9120846,52.4864925,09:30-14:00,,10:00-14:00,09:30-14:00,09:30-14:00,,17.5,Closed,8,2023,,130
356,Barclays,BB,Branch - Birmingham Small Heath,Branch,534,Coventry Road,Bordesley,Birmingham,West Midlands,B10 0UP,-1.8562307,52.4689746,09:30-16:00,09:30-16:00,10:00-16:00,09:30-16:00,09:30-16:00,10:00-14:00,36,Open,,,,596
357,Barclays,BB,Birmingham Sparkbrook,Branch,,,Sparkbrook,Birmingham,West Midlands,B11 4LD,-1.86772,52.45504,,,,,,,,Closed,6,2019,,5
358,Barclays,BB,Birmingham Maypole,Branch,961 Alcester Road South,,Warstock,Birmingham,West Midlands,B14 5JA,-1.887189,52.406124,,,,,,,,Closed,6,2018,,22
359,Barclays,BB,Branch - Birmingham Kings Heath,Branch,161,High Street,Moseley,Birmingham,West Midlands,B14 7LA,-1.8924077,52.4330667,09:30-16:00,09:30-16:00,,09:30-16:00,09:30-16:00,10:00-14:00,30,Closed,3,2023,,234
360,Barclays,BB,Birmingham Edgbaston,Branch,38 Hagley Road,,Edgbaston,Birmingham,West Midlands,B16 8PE,-1.9228898936957988,52.471831663364355,,,,,,,,Closed,3,2021,,437
361,Barclays,BB,Branch - Birmingham Harborne,Branch,68,High Street,Harborne,Birmingham,West Midlands,B17 9NJ,-1.9447832,52.4603576,09:30-16:00,09:30-16:00,10:00-16:00,09:30-16:00,,,25.5,Closed,12,2022,,169
362,Barclays,BB,Branch - Birmingham Soho Road,Branch,351/359,Soho Road,Handsworth,Birmingham,West Midlands,B21 9SE,-1.9398344,52.5040851,09:30-16:00,09:30-16:00,10:00-16:00,09:30-16:00,09:30-16:00,10:00-14:00,36,Closed,8,2023,,299
363,Barclays,BB,Branch - Birmingham Acocks Green,Branch,1099,Warwick Road,Acocks Green,Birmingham,West Midlands,B27 6QU,-1.8242399,52.4463804,09:30-14:00,09:30-14:00,10:00-14:00,09:30-14:00,09:30-14:00,,22,Closed,9,2022,,225
364,Barclays,BB,Branch - Birmingham Colmore Row,Branch,15,Colmore Row,Central Birmingham,Birmingham,West Midlands,B3 2BH,-1.8984773,52.4822197,09:30-14:00,09:30-14:00,,,09:30-14:00,,13.5,Closed,12,2022,,438
365,Barclays,BB,Birmingham Northfield,Branch,766 Bristol Road South,,Northfield,Birmingham,West Midlands,B31 2NW,-1.970374,52.415446,,,,,,,,Closed,12,2018,,64
366,Barclays,BB,Branch - Birmingham Longbridge,Branch,Unit 27,Longbridge Town Centre,Rubery,Birmingham,West Midlands,B31 2UQ,-1.986057,52.3936565,09:30-16:00,,10:00-16:00,09:30-16:00,09:30-16:00,,25.5,Closed,4,2024,,493
367,Barclays,BB,Birmingham West Heath,Branch,"35 ALVECHURCH RD,",,Longbridge,Birmingham,West Midlands,B31 3JW,-1.960928,52.398045,,,,,,,,Closed,11,2015,,7
368,Barclays,BB,Local - Castle Bromwich,Branch,315,Chester Road,Castle Bromwich,Birmingham,West Midlands,B36 0JG,-1.7621833,52.5014799,09:30-14:00,09:30-14:00,10:00-14:00,,09:30-14:00,,17.5,Closed,,2024,,154
369,Barclays,BB,Branch - Birmingham High Street,Branch,79-84,High Street,Central Birmingham,Birmingham,West Midlands,B4 7TE,-1.8948096,52.4790421,09:00-16:00,09:00-16:00,10:00-16:00,09:00-16:00,09:00-16:00,10:00-16:00,40,Open,,,,510
370,Barclays,BB,Branch - Birmingham Kingstanding,Branch,307,Kingstanding Road,Kingstanding,Birmingham,West Midlands,B44 9TH,-1.8850567,52.541855,09:30-14:00,09:30-14:00,10:00-14:00,09:30-14:00,09:30-14:00,,22,Closed,11,2022,,364
371,Barclays,BB,Rubery,Branch,156/158 New Road,,Rubery,Birmingham,West Midlands,B45 9JA,-2.01739,52.393311,,,,,,,,Closed,12,2018,,237
372,Barclays,BB,Alcester,Branch,29 High Street,,,Alcester,West Midlands,B49 5AE,-1.870365,52.214996,,,,,,,,Closed,5,2019,,100
373,Barclays,BB,Branch - Bromsgrove,Branch,118,High Street,Sidemoor,Bromsgrove,West Midlands,B61 8ET,-2.0593075572114223,52.33591865747784,09:30-14:00,09:30-14:00,,,09:30-14:00,,13.5,Closed,10,2022,,660
374,Barclays,BB,Halesowen,Branch,27 Queensway,,Halesowen,Halesowen,West Midlands,B63 4AE,-2.051617,52.44952,,,,,,,,Closed,2,2021,,123
375,Barclays,BB,Old Hill,Branch,"230 HALESOWEN RD,",,Rowley Regis,Halesowen,West Midlands,B64 6HY,-2.067945,52.475358,,,,,,,,Closed,11,2015,,28
376,Barclays,BB,Branch - Blackheath,Branch,70,Birmingham Road,Blackheath,Halesowen,West Midlands,B65 9BA,-2.03928,52.4762,09:30-14:00,,10:00-14:00,09:30-14:00,09:30-14:00,,17.5,Closed,4,2023,,112
377,Barclays,BB,,Branch,535 Bearwood Road,Smethwick,Warley,Birmingham,West Midlands,B66 4BD,-1.969274,52.4758769,,,,,,,,Closed,7,2021,,272
378,Barclays,BB,Smethwick Cape,Branch,67 Cape Hill,,Smethwick,Birmingham,West Midlands,B66 4RZ,-1.958472,52.486859,,,,,,,,Closed,2,2019,,92
379,Barclays,BB,,Branch,17,Church Square,Oldbury,West Bromwich,West Midlands,B69 4DX,-2.01439,52.5029,09:30-14:00,09:30-14:00,10:00-14:00,,,,13,Closed,9,2021,,152
380,Barclays,BB,Branch - West Bromwich,Branch,Bank Chambers,313 High Street,West Bromwich,West Bromwich,West Midlands,B70 8LU,-1.9967059,52.5203129,09:30-16:00,09:30-16:00,,09:30-16:00,09:30-16:00,,26,Open,,,,357
381,Barclays,BB,Branch - Sutton Coldfield,Branch,166,Gracechurch Shopping Centre,Sutton Coldfield,Sutton Coldfield,West Midlands,B72 1PH,-1.82447,52.5633,09:30-16:00,,10:00-16:00,09:30-16:00,09:30-16:00,,25.5,Open,,,,122
382,Barclays,BB,Branch - Tamworth,Branch,24,Middle Entry,Leyfields,Tamworth,West Midlands,B79 7NJ,-1.6950929,52.6333958,09:00-14:00,09:30-14:00,10:00-14:00,,09:00-14:00,,18.5,Closed,11,2022,,118
383,Barclays,BB,Local - Pollards Hill,Branch,892,Washwood Heath Road,Hodge Hill,Birmingham,West Midlands,B8 2NB,-1.8198697,52.4934543,,,,,,,,Closed,6,2021,,86
384,Barclays,BB,Branch - Shirley,Branch,201,Stratford Road,Shirley,Solihull,West Midlands,B90 3AT,-1.8274325,52.4124068,09:30-14:00,09:30-14:00,10:00-14:00,,09:30-14:00,,17.5,Closed,9,2022,,438
385,Barclays,BB,Branch - Solihull,Branch,Mell Square,19-21 Mill Lane,Solihull,Solihull,West Midlands,B91 3AR,-1.7765533,52.4135096,09:30-16:00,09:30-16:00,10:00-16:00,09:30-16:00,09:30-16:00,09:00-16:00,39,Open,,,,26
386,Barclays,BB,Branch - Knowle,Branch,1,Station Road,Knowle,Dorridge,West Midlands,B93 0HW,-1.73409,52.3865,09:30-14:00,09:30-14:00,10:00-14:00,09:30-14:00,09:30-14:00,,22,Closed,6,2023,,199
387,Barclays,BB,Henley-In-Arden,Branch,143 High Street,,,Henley-in-Arden,West Midlands,B95 5BD,-1.779913,52.291883,,,,,,,,Closed,11,2017,,53
388,Barclays,BB,Branch - Redditch,Branch,Unit 26-28,Evesham Walk,Central Redditch,Redditch,West Midlands,B97 4EX,-1.94239,52.3061,09:30-16:00,,10:00-16:00,09:30-16:00,09:30-16:00,,25.5,Closed,9,2023,,232
389,Barclays,BB,Branch - Bath,Branch,44685,Southgate Street,Central Bath,Bath,South West,BA1 1AQ,-2.3592111,51.3788468,09:30-16:00,09:30-16:00,10:00-16:00,09:30-16:00,09:30-16:00,10:00-14:00,36,Open,,,,353
390,Barclays,BB,Branch - Frome,Branch,18,Stony Street,Frome,Frome,South West,BA11 1BX,-2.3218935,51.2310241,09:30-14:00,,10:00-14:00,09:30-14:00,09:30-14:00,,17.5,Closed,8,2023,,465
391,Barclays,BB,,Branch,32,Market Place,,Warminster,South West,BA12 9AR,-2.1801701,51.2046405,,,,,,,,Closed,6,2021,,70
392,Barclays,BB,Westbury,Branch,32 High Street,,Westbury,Westbury,South West,BA13 3DH,-2.185224,51.260587,,,,,,,,Closed,5,2018,,1453
393,Barclays,BB,Branch - Trowbridge,Branch,3,Fore Street,Longfield,Trowbridge,South West,BA14 8HY,-2.2086336,51.3212762,09:30-14:00,09:30-14:00,10:00-14:00,,09:30-14:00,,17.5,Closed,9,2022,,125
394,Barclays,BB,,Branch,109,High Street,Street,Street,South West,BA16 0EY,-2.7413242,51.1259249,,,,,,,,Closed,7,2021,,101
395,Barclays,BB,Combe Down,Branch,2 North Road,,Fox Hill,Bath,South West,BA2 5DQ,-2.350808,51.360367,,,,,,,,Closed,11,2017,,661
396,Barclays,BB,Branch - Yeovil,Branch,King George Street,,Central Yeovil,Yeovil,South West,BA20 1PX,-2.6331229,50.9410117,09:00-16:00,09:00-16:00,10:00-16:00,09:00-16:00,09:00-16:00,09:00-14:00,39,Open,,,,24
397,Barclays,BB,Midsomer Norton,Branch,1 The Island,,Thicket Mead,Midsomer Norton,South West,BA3 2HQ,-2.483474,51.285312,,,,,,,,Closed,1,2019,,94
398,Barclays,BB,Local - Wells,Branch,9,Market Place,,Wells,South West,BA5 2RH,-2.64552,51.2096,09:30-14:00,,10:00-14:00,09:30-14:00,09:30-14:00,,17.5,Closed,8,2022,,682
399,Barclays,BB,Branch - Burnley,Branch,72/78,St James Street,Central Burnley,Burnley,North West,BB11 1NH,-2.2432132,53.7892295,09:30-16:00,09:30-16:00,10:00-16:00,09:30-16:00,09:30-16:00,09:30-13:00,35.5,Open,,,,144
400,Barclays,BB,Branch - Barnoldswick,Branch,5,Church Street,,Barnoldswick,North West,BB18 5UR,-2.188109219533062,53.916157052268865,09:30-14:00,09:30-14:00,,09:30-14:00,09:30-14:00,,18,Closed,4,2023,,103
401,Barclays,BB,Branch - Blackburn,Branch,44774,Darwen Street,Central Blackburn,Blackburn,North West,BB2 2BZ,-2.4831941,53.7474092,09:30-16:00,09:30-16:00,,09:30-16:00,09:30-16:00,,26,Closed,5,2024,,165
402,Barclays,BB,Darwen,Branch,8 Church Street,,Darwen,Darwen,North West,BB3 2SP,-2.466286,53.69518,,,,,,,,Closed,10,2016,,119
403,Barclays,BB,Local - Rawtenstall,Branch,36,Bank Street,,Rawtenstall,North West,BB4 7QW,-2.2849395,53.7025958,09:30-14:00,09:30-14:00,10:00-14:00,,09:30-14:00,,17.5,Closed,6,2022,,145
404,Barclays,BB,,Branch,5 Union,Street,Hillock Vale,Accrington,North West,BB5 1JY,-2.3658227,53.7533915,09:30-14:00,09:30-14:00,,,09:30-14:00,,13.5,Closed,8,2021,,210
405,Barclays,BB,Great Harwood,Branch,"14 QUEEN ST,",,,Great Harwood,North West,BB6 7QJ,-2.40824,53.786325,,,,,,,,Closed,11,2015,,89
406,Barclays,BB,Branch - Clitheroe,Branch,Castle Street,,,Clitheroe,North West,BB7 2BT,-2.3921425,53.8717322,09:30-14:00,09:30-14:00,10:00-14:00,,09:30-14:00,,17.5,Closed,9,2022,,108
407,Barclays,BB,Whalley,Branch,65/67 King Street,,,Whalley,North West,BB7 9SW,-2.406858,53.822245,,,,,,,,Closed,5,2018,,47
408,Barclays,BB,Colne,Branch,34 Church Street,,,Colne,North West,BB8 0LH,-2.170937,53.856761,,,,,,,,Closed,5,2019,,257
409,Barclays,BB,Nelson,Branch,28/34 Manchester Road,,Central Nelson,Nelson,North West,BB9 7EH,-2.215786,53.836188,,,,,,,,Closed,6,2019,,57
410,Barclays,BB,Branch - Bradford,Branch,10,Market Street,Central Bradford,Bradford,Yorkshire and The Humber,BD1 1EG,-1.7520829,53.7941818,09:30-16:00,09:30-16:00,10:00-16:00,09:30-16:00,09:30-16:00,,32,Open,,,,171
411,Barclays,BB,Idle,Branch,"New Street, Idle",,Eccleshill,Bradford,Yorkshire and The Humber,BD10 9RH,-1.730609,53.835748,,,,,,,,Closed,1,2019,,92
412,Barclays,BB,Wyke,Branch,9 Town Gate,,Wyke,Bradford,Yorkshire and The Humber,BD12 9PA,-1.768028,53.740679,,,,,,,,Closed,7,2018,,113
413,Barclays,BB,,Branch,35,Otley Road,Shipley,Bradford,Yorkshire and The Humber,BD18 3QA,-1.7761962,53.8340932,,,,,,,,Closed,7,2021,,265
414,Barclays,BB,Cross Hills,Branch,Main Street,,Glusburn,Glusburn,Yorkshire and The Humber,BD20 8TB,-1.990774,53.901701,,,,,,,,Closed,11,2017,,144
415,Barclays,BB,Branch - Keighley,Branch,77,North Street,Eastwood,Keighley,Yorkshire and The Humber,BD21 3SA,-1.90997,53.8673,09:30-15:30,09:30-15:30,,09:30-15:30,09:30-15:30,,24,Closed,8,2024,,179
416,Barclays,BB,Branch - Skipton,Branch,Barclays Bank Chambers,49 High Street,,Skipton,Yorkshire and The Humber,BD23 1DT,-2.0160739,53.9619226,09:30-14:00,09:30-14:00,10:00-14:00,09:30-14:00,,,17.5,Closed,3,2024,,235
417,Barclays,BB,Grassington,Branch,Main Street,,,Grassington,Yorkshire and The Humber,BD23 5LA,-1.997489,54.071159,,,,,,,,Closed,5,2019,,210
418,Barclays,BB,Local - Settle,Branch,Duke Street,,,Settle,Yorkshire and The Humber,BD24 9DP,-2.2775746,54.0674419,09:30-14:00,09:30-14:00,,,09:30-14:00,,13.5,Closed,,2024,,29
419,Barclays,BB,Branch - Bournemouth,Branch,61,Old Christchurch Road,Central Bournemouth,Bournemouth,South West,BH1 1DT,-1.8765015,50.7212058,09:30-16:00,09:30-16:00,10:00-16:00,09:30-16:00,09:30-16:00,10:00-13:00,35,Open,,,,185
420,Barclays,BB,Boscombe,Branch,659 Christchurch Road,,Boscombe,Bournemouth,South West,BH1 4AU,-1.836721,50.72702,,,,,,,,Closed,11,2020,,278
421,Barclays,BB,Parkstone,Branch,13 Bournemouth Road,,Parkstone,Poole,South West,BH14 0EQ,-1.940446,50.724907,,,,,,,,Closed,12,2016,,526
422,Barclays,BB,Branch - Poole,Branch,100,High Street,Central Poole,Poole,South West,BH15 1BL,-1.9848376,50.7150656,09:30-16:00,09:30-16:00,,09:30-16:00,09:30-16:00,09:00-12:00,29,Closed,3,2024,,381
423,Barclays,BB,Branch - Broadstone,Branch,204,Lower Blandford Road,Broadstone,Poole,South West,BH18 8DS,-1.9945,50.7605,09:30-14:00,09:30-14:00,10:00-14:00,09:30-14:00,09:30-14:00,,22,Closed,10,2022,,176
424,Barclays,BB,Swanage,Branch,22 Station Road,,Swanage,Swanage,South West,BH19 1AE,-1.957875,50.609537,,,,,,,,Closed,10,2018,,125
425,Barclays,BB,Wareham,Branch,3 North Street,,Wareham,Wareham,South West,BH20 4LB,-2.110262,50.6863,,,,,,,,Closed,10,2018,,52
426,Barclays,BB,Wimborne,Branch,6 The Square,,Wimborne Minster,Wimborne Minster,South West,BH21 1JA,-1.987575,50.80027,,,,,,,,Closed,5,2019,,59
427,Barclays,BB,,Branch,115,Victoria Road,Ferndown,Ferndown,South West,BH22 9HJ,-1.8911043,50.803287,,,,,,,,Closed,7,2021,,10
428,Barclays,BB,,Branch,22,High Street,Central Christchurch,Christchurch,South West,BH23 1BQ,-1.7781613,50.7351936,,,,,,,,Closed,7,2021,,56
429,Barclays,BB,Branch - Ringwood,Branch,44779,High Street,,Ringwood,South East,BH24 1BZ,-1.7914391,50.8460861,09:30-14:00,09:30-14:00,10:00-14:00,09:30-14:00,09:30-14:00,,22,Closed,6,2023,,100
430,Barclays,BB,,Branch,32,Station Road,New Milton,New Milton,South East,BH25 6JX,-1.6559193,50.7543277,,,,,,,,Closed,7,2021,,78
431,Barclays,BB,Verwood,Branch,9 The Parade,,,Verwood,South West,BH31 7AA,-1.878072,50.881841,,,,,,,,Closed,11,2017,,162
432,Barclays,BB,,Branch,131,Poole Road,Westbourne,Bournemouth,South West,BH4 9BJ,-1.9053283,50.723427,,,,,,,,Closed,6,2021,,268
433,Barclays,BB,Branch - Bournemouth Castle Lane,Branch,The Shopping Village,,Strouden,Bournemouth,South West,BH8 9UP,-1.84476,50.7513,09:30-14:00,09:30-14:00,10:00-14:00,09:30-14:00,09:30-14:00,09:30-12:30,25,Closed,9,2023,,170
434,Barclays,BB,Branch - Bolton,Branch,1,Market Street,Central Bolton,Bolton,North West,BL1 1BU,-2.4296942,53.5787883,09:30-16:00,09:30-16:00,10:00-16:00,09:30-16:00,09:30-16:00,,32,Open,,,,59
435,Barclays,BB,Westhoughton,Branch,,,Westhoughton,Westhoughton,North West,BL5 3BB,-2.524099,53.549168,,,,,,,,Closed,11,2020,,180
436,Barclays,BB,Horwich,Branch,70 Winter Hey Lane,,Horwich,Horwich,North West,BL6 7NZ,-2.548625,53.598144,,,,,,,,Closed,4,2018,,85
437,Barclays,BB,Branch - Bury,Branch,1,Central Street,Central Bury,Bury,North West,BL9 0JN,-2.293,53.5948,09:30-16:00,09:30-16:00,10:00-16:00,09:30-16:00,09:30-16:00,09:30-14:00,36.5,Open,,,,142
438,Barclays,BB,Branch - Brighton,Branch,139/142,North Street,Central Brighton,Brighton,South East,BN1 1RU,-0.1418357,50.823413,09:00-16:00,09:00-16:00,10:00-16:00,09:00-16:00,09:00-16:00,09:00-14:00,39,Open,,,,305
439,Barclays,BB,University Of Sussex,Branch,Lewes Road Falmer,,,Falmer,South East,BN1 9RN,-0.086975,50.86418,,,,,,,,Closed,2,2021,,460
440,Barclays,BB,Peacehaven,Branch,238a South Coast Road,,Peacehaven,Peacehaven,South East,BN10 8JS,-0.002096,50.791591,,,,,,,,Closed,10,2017,,669
441,Barclays,BB,Branch - Worthing,Branch,Chapel House,1 Chapel Road,Central Worthing,Worthing,South East,BN11 1EX,-0.370762,50.8117,09:00-16:00,09:00-16:00,10:00-16:00,09:00-16:00,09:00-16:00,09:00-14:00,39,Open,,,,139
442,Barclays,BB,Lancing,Branch,47 North Road,,Sompting,Lancing,South East,BN15 9AU,-0.322648,50.828469,,,,,,,,Closed,8,2018,,98
443,Barclays,BB,Branch - Rustington,Branch,126,The Street,Rustington,Littlehampton,South East,BN16 3DH,-0.506666,50.8103839,09:00-14:00,09:00-14:00,,09:00-14:00,09:00-14:00,,20,Closed,9,2022,,144
444,Barclays,BB,,Branch,71,High Street,Central Littlehampton,Littlehampton,South East,BN17 5AE,-0.5417927,50.8094486,,,,,,,,Closed,6,2021,,26
445,Barclays,BB,Branch - Eastbourne,Branch,63/67,Terminus Road,Meads,Eastbourne,South East,BN21 3NE,0.28418,50.7687,09:00-16:00,09:00-16:00,10:00-16:00,09:00-16:00,09:00-16:00,09:00-14:00,39,Open,,,,58
446,Barclays,BB,,Branch,47,Broad Street,Seaford,Seaford,South East,BN25 1NG,0.1019655,50.7737209,09:00-14:00,09:00-14:00,10:00-14:00,09:00-14:00,09:00-14:00,,24,Closed,10,2021,,203
447,Barclays,BB,Polegate,Branch,"59 HIGH ST,",,Polegate,Eastbourne,South East,BN26 6AH,0.24409,50.82215,,,,,,,,Closed,9,2015,,108
448,Barclays,BB,Hailsham,Branch,Market Street,,Coppards,Hailsham,South East,BN27 2AB,0.260854,50.862317,,,,,,,,Closed,2,2021,,101
449,Barclays,BB,Branch - Hove,Branch,149,Church Road,Central Hove,Hove,South East,BN3 2AE,-0.1739,50.8282,09:00-16:00,09:00-16:00,10:00-16:00,09:00-16:00,09:00-16:00,09:00-14:00,39,Closed,12,2023,,305
450,Barclays,BB,Hangleton,Branch,"218/220 HANGLETON RD,",,West Blatchington,Hove,South East,BN3 7LP,-0.191029,50.846129,,,,,,,,Closed,10,2015,,321
451,Barclays,BB,Branch - Southwick,Branch,Bank House Southwick Square,,,"Southwick, West Sussex",South East,BN42 4FH,-0.2352421,50.8346531,09:30-14:00,09:30-14:00,10:00-14:00,09:30-14:00,09:30-14:00,,22,Closed,10,2022,,163
452,Barclays,BB,Steyning,Branch,High Street,,,Steyning,South East,BN44 3YZ,-0.328609,50.888171,,,,,,,,Closed,3,2019,,17
453,Barclays,BB,Henfield,Branch,High Street,,,"Henfield, West Sussex",South East,BN5 9DL,-0.272676,50.930811,,,,,,,,Closed,4,2018,,45
454,Barclays,BB,Hassock,Branch,"19 KEYMER RD,",,,Hassocks,South East,BN6 8AF,-0.143181,50.924183,,,,,,,,Closed,10,2015,,151
455,Barclays,BB,,Branch,The Old Bank,,,Lewes,South East,BN7 2JP,0.010819,50.8734,09:00-14:00,09:00-14:00,,,09:00-14:00,,15,Closed,10,2021,,307
456,Barclays,BB,Ringmer,Branch,"WESTFIELDS,",,,Ringmer,South East,BN8 5QE,0.057419,50.893768,,,,,,,,Closed,10,2015,,67
457,Barclays,BB,Branch - Bromley,Branch,167,High Street,Bromley,London,London,BR1 1NJ,0.014876,51.4054,09:00-16:00,09:00-16:00,10:00-16:00,09:00-16:00,09:00-16:00,09:00-12:00,37,Open,,,,128
458,Barclays,BB,Hayes Kent,Branch,"41 STATION APPROACH,",,Hayes : Bromley,London,London,BR2 7EE,0.011659,51.376565,,,,,,,,Closed,10,2015,,21
459,Barclays,BB,Branch - Beckenham,Branch,Barclays House,3 Beckenham Road,Beckenham,London,London,BR3 4ES,-0.0326857,51.4070303,09:00-16:00,09:00-16:00,10:00-16:00,09:00-16:00,09:00-16:00,09:00-12:00,37,Closed,6,2023,,330
460,Barclays,BB,Branch - West Wickham,Branch,47,High Street,West Wickham,London,London,BR4 0NP,-0.0169308,51.3760741,09:00-14:00,09:00-14:00,10:00-14:00,09:00-14:00,09:00-14:00,09:00-12:00,27,Closed,11,2023,,22
461,Barclays,BB,Branch - Orpington,Branch,229,High Street,Central Orpington,Orpington,London,BR6 0JU,0.0997168,51.3759821,09:00-16:00,09:00-16:00,10:00-16:00,09:00-16:00,09:00-16:00,09:00-12:00,37,Closed,12,2023,,70
462,Barclays,BB,Farnborough Kent,Branch,368 CROFTON ROAD,,Locksbottom,Orpington,London,BR6 8NN,0.054857,51.367381,,,,,,,,Closed,9,2015,,83
463,Barclays,BB,Branch - Chislehurst,Branch,7,High Street,Chislehurst,London,London,BR7 5AB,0.0687351,51.4167316,09:00-14:00,09:00-14:00,10:00-14:00,09:00-14:00,09:00-14:00,,24,Closed,5,2023,,360
464,Barclays,BB,,Branch,30,Swanley Centre,,Swanley,South East,BR8 7TJ,0.1738622,51.3962849,09:00-14:00,09:00-14:00,10:00-14:00,09:00-14:00,09:00-14:00,,24,Closed,11,2021,,146
465,Barclays,BB,Branch - Bristol Broadmead,Branch,55,Broadmead,Central Bristol,Bristol,South West,BS1 3EA,-2.589293803282195,51.45744013873128,09:30-16:00,09:30-16:00,10:00-16:00,09:30-16:00,09:30-16:00,10:00-14:00,36,Open,,,,79
466,Barclays,BB,Branch - Bristol Kingswood,Branch,78,Regent Street,Kingswood,Bristol,South West,BS15 8LD,-2.5079492,51.4624898,09:30-16:00,09:30-16:00,10:00-16:00,09:30-16:00,09:30-16:00,09:30-13:00,35.5,Closed,7,2023,,101
467,Barclays,BB,Fishponds,Branch,12 Straits Parade,,Fishponds,Bristol,South West,BS16 3UR,-2.52827,51.48095,,,,,,,,Closed,12,2020,,121
468,Barclays,BB,Emersons Green,Branch,"Unit 7, The Village",,Mangotsfield,Bristol,South West,BS16 7AE,-2.474563,51.49306,,,,,,,,Closed,5,2019,,1219
469,Barclays,BB,,Branch,68,High Street,Portishead Dock,Portishead,South West,BS20 6EH,-2.7691511,51.483049,,,,,,,,Closed,7,2021,,5433
470,Barclays,BB,Clevedon,Branch,2 Linden Road,,,Clevedon,South West,BS21 7SN,-2.856366,51.440062,,,,,,,,Closed,3,2018,,500
471,Barclays,BB,Worle,Branch,168 High Street,,Worle,Weston-Super-Mare,South West,BS22 6JD,-2.927056,51.360119,,,,,,,,Closed,3,2018,,97
472,Barclays,BB,Branch - Weston Super Mare,Branch,26/30,Regent Street,Central Weston-Super-Mare,Weston-Super-Mare,South West,BS23 1SH,-2.9799479,51.3476124,09:30-16:00,,10:00-16:00,09:30-16:00,09:30-16:00,09:30-13:00,29,Open,,,,256
473,Barclays,BB,Keynsham,Branch,46 High Street,,,Keynsham,South West,BS31 1DX,-2.498808,51.415471,,,,,,,,Closed,2,2021,,24
474,Barclays,BB,Thornbury,Branch,41 High Street,,,Thornbury,South West,BS35 2AR,-2.525792,51.60752,,,,,,,,Closed,5,2019,,141
475,Barclays,BB,,Branch,44780,North Parade The Shopping Centre,Central Yate,Yate,South West,BS37 4AN,-2.41327,51.5411,,,,,,,,Closed,7,2021,,174
476,Barclays,BB,Bristol Brislington,Branch,2 Emery Road,,Brislington,Bristol,South West,BS4 5PN,-2.538075,51.429792,,,,,,,,Closed,11,2017,,1682
477,Barclays,BB,,Branch,134,High Street,,Nailsea,South West,BS48 1AP,-2.75754,51.4336,,,,,,,,Closed,7,2021,,94
478,Barclays,BB,Bristol Bishopston,Branch,60 Gloucester Road,,Bishopston,Bristol,South West,BS7 8BJ,-2.591428,51.473369,,,,,,,,Closed,9,2017,,49
479,Barclays,BB,Bristol Clifton Queens Road,Branch,,,Cotham,Bristol,South West,BS8 1RB,-2.608179,51.457557,,,,,,,,Closed,4,2021,,752
480,Barclays,BB,Branch - Westbury on Trym,Branch,1,High Street,Westbury on Trym,Bristol,South West,BS9 3DR,-2.61833,51.4929,09:30-14:00,09:30-14:00,10:00-14:00,09:30-14:00,09:30-14:00,09:30-12:30,25,Closed,2,2024,,180
481,Barclays,BB,Branch - Belfast,Branch,Ground Floor,17 Castle Place,Central Belfast,Belfast,Northern Ireland,BT1 1EL,-5.92828,54.5989,09:30-16:00,09:30-16:00,10:00-16:00,09:30-16:00,09:30-16:00,,32,Open,,,,139
482,Barclays,BB,Branch - Bangor,Branch,16,Main Street,Central Bangor,Bangor,Northern Ireland,BT20 5BS,-5.66666,54.662,09:30-14:00,09:30-14:00,10:00-14:00,09:30-14:00,09:30-14:00,,22,Closed,5,2024,,250
483,Barclays,BB,Branch - Lisburn,Branch,61,Bow Street,Central Lisburn,Lisburn,Northern Ireland,BT28 1DR,-6.04605,54.5107,09:30-14:00,09:30-14:00,10:00-14:00,09:30-14:00,09:30-14:00,,22,Closed,7,2023,,112
484,Barclays,BB,Branch - Newry,Branch,32,Hill Street,Central Newry,Newry,Northern Ireland,BT34 1AR,-6.3385437,54.1742759,09:30-14:00,09:30-14:00,10:00-14:00,09:30-14:00,09:30-14:00,,22,Closed,2,2024,,101
485,Barclays,BB,Branch - Coleraine,Branch,27/29,Church Street,Coleraine West,Coleraine,Northern Ireland,BT52 1AW,-6.66719,55.1309,09:30-14:00,09:30-14:00,10:00-14:00,09:30-14:00,09:30-14:00,,22,Closed,2,2024,,263
486,Barclays,BB,Branch - Portadown,Branch,3,High Street,Portadown West,Portadown,Northern Ireland,BT62 1HZ,-6.4429446,54.4231629,09:30-14:00,09:30-14:00,10:00-14:00,09:30-14:00,09:30-14:00,,22,Closed,7,2023,,345
487,Barclays,BB,,Branch,Montgomery Way,,Botcherby,Carlisle,North West,CA1 2RT,-2.89201,54.8927,09:30-14:00,09:30-14:00,10:00-14:00,09:30-14:00,09:30-14:00,,22,Closed,11,2021,,696
488,Barclays,BB,Branch - Penrith,Branch,Market Square,,Plumpton,Penrith,North West,CA11 7YB,-2.7522372,54.6638475,09:30-14:00,,10:00-14:00,09:30-14:00,09:30-14:00,,17.5,Closed,4,2024,,52
489,Barclays,BB,Branch - Keswick,Branch,Market Square,,,"Keswick, Cumbria",North West,CA12 5BE,-3.1370776,54.6003901,,09:30-14:00,,09:30-14:00,09:30-14:00,,13.5,Closed,4,2023,,162
490,Barclays,BB,Branch - Cockermouth,Branch,30,Main Street,,Cockermouth,North West,CA13 9LQ,-3.3640696,54.6638464,09:30-14:00,,10:00-14:00,,09:30-14:00,,13,Open,,,,136
491,Barclays,BB,Branch - Workington,Branch,2,Finkle Street,Workington,Workington,North West,CA14 2AU,-3.54607,54.6445,09:30-14:00,09:30-14:00,10:00-14:00,09:30-14:00,09:30-14:00,,22,Closed,10,2022,,138
492,Barclays,BB,Appleby,Branch,Boroughgate,,,"Appleby, Cumbria",North West,CA16 6XF,-2.490616,54.577282,,,,,,,,Closed,5,2018,,30
493,Barclays,BB,Branch - Kirkby Stephen,Branch,33,Market Square,,Kirkby Stephen,North West,CA17 4QN,-2.3483016,54.4733571,10:00-14:00,10:00-14:00,,10:00-14:00,10:00-14:00,,16,Closed,4,2024,,527
494,Barclays,BB,Whitehaven,Branch,Strand Street,,Hensingham,Whitehaven,North West,CA28 7DL,-3.590426,54.544634,,,,,,,,Closed,3,2019,,548
495,Barclays,BB,Branch - Carlisle,Branch,33,English Street,Central Carlisle,Carlisle,North West,CA3 8JX,-2.9349407,54.8936352,09:30-16:00,09:30-16:00,10:00-16:00,09:30-16:00,09:30-16:00,09:30-13:00,35.5,Open,,,,49
496,Barclays,BB,Longtown,Branch,23 Bridge Street,,,"Longtown, Cumbria",North West,CA6 5UB,-2.973166,55.010081,,,,,,,,Closed,10,2017,,170
497,Barclays,BB,Wigton,Branch,,,,Wigton,North West,CA7 9DU,-3.160749,54.824854,,,,,,,,Closed,6,2019,,42
498,Barclays,BB,Brampton,Branch,16 Front Street,,,"Brampton, Cumbria, CA8",North West,CA8 1NG,-2.735617,54.941871,,,,,,,,Closed,5,2018,,38
499,Barclays,BB,Alston,Branch,"FRONT ST,",,,"Alston, Cumbria",North West,CA9 3SE,-2.438568,54.81189,,,,,,,,Closed,12,2015,,97
500,Barclays,BB,Cambridge Cherry Hinton Road,Branch,,,Addenbrooke's,Cambridge,Eastern,CB1 7BN,0.138272,52.18942,,,,,,,,Closed,11,2020,,175
501,Barclays,BB,Branch - Saffron Walden,Branch,12a,Market Place,,Saffron Walden,Eastern,CB10 1HR,0.2416243,52.0240856,09:00-14:00,09:00-14:00,,09:00-14:00,09:00-14:00,09:00-12:00,23,Closed,8,2022,,250
502,Barclays,BB,Branch - Addenbrookes Hospital,Branch,Addenbrookes Hospital,,Addenbrooke's,Cambridge,Eastern,CB2 0QQ,0.13884,52.1745,09:00-16:30,09:00-16:30,10:00-16:30,09:00-16:30,09:00-16:30,,36.5,Closed,9,2023,,1140
503,Barclays,BB,Branch - Cambridge St Andrews Street,Branch,44874,St Andrews Street,Central Cambridge,Cambridge,Eastern,CB2 3AX,0.1225056,52.2045722,09:00-16:00,09:00-16:00,10:00-16:00,09:00-16:00,09:00-16:00,09:00-14:00,39,Open,,,,25
504,Barclays,BB,,Branch,35,Sidney Street,Central Cambridge,Cambridge,Eastern,CB2 3HY,0.119914,52.207137,09:00-14:00,09:00-14:00,10:00-14:00,09:00-14:00,09:00-14:00,,24,Closed,10,2021,,200
505,Barclays,BB,Great Shelford,Branch,Woollards Lane,,Great Shelford,Great Shelford,Eastern,CB2 5NA,0.13468,52.146189,,,,,,,,Closed,1,2019,,720
506,Barclays,BB,Branch - Histon,Branch,15/17,High Street,,Histon,Eastern,CB24 9JD,0.1052144,52.2522763,09:30-14:00,,,09:30-14:00,09:30-14:00,,13.5,Closed,9,2022,,67
507,Barclays,BB,Branch - Cambridge Chesterton Road,Branch,28,Chesterton Road,Chesterton,Cambridge,Eastern,CB4 3AZ,0.12516,52.2141408,09:00-14:00,09:00-14:00,10:00-14:00,,09:00-14:00,,19,Closed,6,2023,,766
508,Barclays,BB,Burwell,Branch,5 Parsonage Lane,,,"Burwell, Cambridgeshire",Eastern,CB5 0EW,0.32687,52.274684,,,,,,,,Closed,11,2017,,403
509,Barclays,BB,Littleport,Branch,"11 MAIN ST,",,,Littleport,Eastern,CB6 1PH,0.30597,52.456525,,,,,,,,Closed,10,2015,,41
510,Barclays,BB,Branch - Ely,Branch,28,High Street,,Ely,Eastern,CB7 4LA,0.2639217,52.3994009,09:00-16:00,09:00-16:00,10:00-16:00,09:00-16:00,09:00-16:00,09:00-12:00,37,Closed,4,2024,,188
511,Barclays,BB,Soham,Branch,54 High Street,,,Soham,Eastern,CB7 5HE,0.338451,52.332598,,,,,,,,Closed,5,2019,,34
512,Barclays,BB,Branch - Newmarket,Branch,58,High Street,,Newmarket,Eastern,CB8 8NH,0.4067634,52.244409,09:00-16:00,09:00-16:00,10:00-16:00,09:00-16:00,09:00-16:00,,34,Closed,6,2023,,205
513,Barclays,BB,Branch - Haverhill,Branch,39,High Street,,Haverhill,Eastern,CB9 8AE,0.4399681769093078,52.08184327553324,09:00-16:00,09:00-16:00,10:00-16:00,09:00-16:00,09:00-16:00,09:00-12:00,37,Closed,9,2023,,181
514,Barclays,BB,Branch - Cardiff,Branch,St David's Way,28 Working Street,Central Cardiff,Cardiff,Wales,CF10 2DP,-3.1749335,51.4812359,10:00-16:00,10:00-16:00,10:00-16:00,10:00-16:00,10:00-16:00,10:00-15:00,35,Open,,,,141
515,Barclays,BB,,Branch,241,Cowbridge Road East,Canton,Cardiff,Wales,CF11 9TB,-3.2001151,51.4812077,09:30-14:00,09:30-14:00,10:00-14:00,09:30-14:00,09:30-14:00,,22,Closed,8,2021,,281
516,Barclays,BB,Local - Whitchurch,Branch,1,Old Church Road,Whitchurch,Cardiff,Wales,CF14 1XQ,-3.2201777,51.513235,09:30-15:30,09:30-15:30,10:00-15:30,09:30-15:30,09:30-15:30,,29.5,Closed,,2024,,167
517,Barclays,BB,Llanishen,Branch,34 Station Road,,Llanishen,Cardiff,Wales,CF14 5LT,-3.18894,51.528808,,,,,,,,Closed,2,2021,,86
518,Barclays,BB,Branch - Roath Park,Branch,42,Wellfield Road,Roath,Cardiff,Wales,CF24 3YR,-3.1649681,51.4955536,09:30-14:00,09:30-14:00,10:00-14:00,09:30-14:00,09:30-14:00,,22,Closed,10,2023,,384
519,Barclays,BB,Cardiff Rumney,Branch,781 Newport Road,,Llanrumney,Cardiff,Wales,CF3 4AJ,-3.132455,51.508919,,,,,,,,Closed,8,2018,,10
520,Barclays,BB,Branch - Bridgend,Branch,36,Dunraven Place,Central Bridgend,Bridgend,Wales,CF31 1JB,-3.5799997,51.5069083,09:30-15:30,09:30-15:30,10:00-15:30,09:30-15:30,09:30-15:30,09:30-13:30,33.5,Closed,4,2024,,32
521,Barclays,BB,Bridgend Industrial Estate,Branch,5 Bank Buildings,,Brackla,Bridgend,Wales,CF31 3SB,-3.538828,51.501666,,,,,,,,Closed,2,2021,,11
522,Barclays,BB,Porthcawl,Branch,90 John Street,,,Porthcawl,Wales,CF36 3DS,-3.705271,51.483879,,,,,,,,Closed,5,2019,,613
523,Barclays,BB,Branch - Pontypridd,Branch,91,Taff Street,Trallwn,Pontypridd,Wales,CF37 4SN,-3.3408691,51.6011416,09:30-16:00,09:30-16:00,10:00-16:00,,09:30-16:00,,25.5,Closed,11,2023,,65
524,Barclays,BB,Treforest Trading Estate,Branch,Treforest Trading Estate,,,Nantgarw,Wales,CF37 5UR,-3.28471,51.568396,,,,,,,,Closed,5,2019,,131
525,Barclays,BB,Tonyrefail,Branch,"3 HIGH ST,",,Tonyrefail,Tonyrefail,Wales,CF39 8PG,-3.429518,51.583683,,,,,,,,Closed,10,2015,,531
526,Barclays,BB,Porth,Branch,8 Station Street,,,Porth,Wales,CF39 9NT,-3.408375,51.612161,,,,,,,,Closed,10,2017,,153
527,Barclays,BB,Tonypandy,Branch,31 Dunraven Street,,,Tonypandy,Wales,CF40 1AF,-3.454362,51.622139,,,,,,,,Closed,5,2019,,41
528,Barclays,BB,Branch - Treorchy,Branch,100/101,Bute Street,,Treorchy,Wales,CF42 6AN,-3.50714,51.6605,09:30-14:00,09:30-14:00,10:00-14:00,09:30-14:00,09:30-14:00,,22,Closing,,,,205
529,Barclays,BB,Ferndale,Branch,21/22 High Street,,,Ferndale,Wales,CF43 4RL,-3.448366,51.661571,,,,,,,,Closed,5,2019,,49
530,Barclays,BB,Local - Aberdare,Branch,41609,Victoria Square,Trecynon,Aberdare,Wales,CF44 7HY,-3.4446691,51.7128614,09:00-13:30,09:00-13:30,,09:00-13:30,09:00-13:30,,18,Closed,,2024,,168
531,Barclays,BB,Nelson Glamorgan,Branch,20 Commercial Street,,,"Nelson, Gwent",Wales,CF46 6NF,-3.28195,51.65084,,,,,,,,Closed,12,2016,,88
532,Barclays,BB,Branch - Merthyr Tydfil,Branch,47,High Street,Twynyrodyn,Merthyr Tydfil,Wales,CF47 8DL,-3.37809,51.745,09:30-14:00,09:30-14:00,,09:30-14:00,09:30-14:00,09:30-13:00,21.5,Closed,6,2023,,143
533,Barclays,BB,Branch - Barry,Branch,73,Holton Road,Barry Dock,Barry,Wales,CF63 4SU,-3.2687323,51.4057353,09:30-14:00,09:30-14:00,10:00-14:00,09:30-14:00,09:30-14:00,,22,Closed,11,2022,,287
534,Barclays,BB,,Branch,2,Windsor Road,Lower Penarth,Penarth,Wales,CF64 1YL,-3.174112,51.4386608,09:30-14:00,09:30-14:00,10:00-14:00,,09:30-14:00,,17.5,Closed,8,2021,,186
535,Barclays,BB,,Branch,62,High Street,,"Cowbridge, South Glamorgan",Wales,CF71 7YT,-3.4504077,51.4621924,09:30-14:00,09:30-14:00,,,09:30-14:00,,13.5,Closed,8,2021,,183
536,Barclays,BB,Branch - Talbot Green,Branch,3,Ely Valley Road,,"Llantrisant, Mid Glamorgan",Wales,CF72 8AL,-3.3848341,51.5381141,09:30-15:00,09:30-15:00,10:00-15:00,09:30-15:00,09:30-15:00,,27,Closed,5,2023,,233
537,Barclays,BB,Branch - Bargoed,Branch,1,Hanbury Road,,Bargoed,Wales,CF81 8XA,-3.22858,51.6905,09:30-14:00,09:30-14:00,,09:30-14:00,09:30-14:00,,18,Closed,4,2023,,363
538,Barclays,BB,Branch - Ystrad Mynach,Branch,27,Bedwlwyn Road,Ystrad Mynach,Ystrad Mynach,Wales,CF82 7AA,-3.2359556,51.6419215,09:30-14:00,09:30-14:00,10:00-14:00,09:30-14:00,09:30-14:00,,22,Open,,,,112
539,Barclays,BB,Branch - Caerphilly,Branch,The Twyn,,Pontypandy,Caerphilly,Wales,CF83 1UE,-3.2184146178997612,51.57444629764388,09:30-14:00,09:30-14:00,10:00-14:00,09:30-14:00,09:30-14:00,,22,Closed,10,2023,,205
540,Barclays,BB,Branch - Chester,Branch,30,St Werburgh Street,Central Chester,Chester,North West,CH1 2DY,-2.89183,53.1919,09:30-16:00,09:30-16:00,10:00-16:00,09:30-16:00,09:30-16:00,,32,Open,,,,180
541,Barclays,BB,Hoole,Branch,39 Hoole Road,,Hoole,Chester,North West,CH2 3NH,-2.878495,53.199344,,,,,,,,Closed,5,2019,,137
542,Barclays,BB,Branch - Birkenhead,Branch,182 - 184,Grange Road,Central Birkenhead,Birkenhead,North West,CH41 6EA,-3.0271587,53.3898844,09:30-16:00,09:30-16:00,10:00-16:00,09:30-16:00,09:30-16:00,,32,Open,,,,315
543,Barclays,BB,Birkenhead Higher Tranmere,Branch,2 Bebington Road,,Prenton,Birkenhead,North West,CH42 6PU,-3.02503,53.373892,,,,,,,,Closed,9,2017,,268
544,Barclays,BB,Branch - Liscard,Branch,2,Liscard Village,Liscard,Wallasey,North West,CH45 4JS,-3.0447471,53.4204578,09:30-16:00,09:30-16:00,10:00-16:00,09:30-16:00,09:30-16:00,,32,Closed,3,2024,,22
545,Barclays,BB,Moreton Merseyside,Branch,6 Chadwick Street,,Moreton,Moreton,North West,CH46 0SP,-3.11367,53.40042,,,,,,,,Closed,1,2021,,66
546,Barclays,BB,West Kirby,Branch,1 The Crescent,,West Kirby,West Kirby,North West,CH48 4HA,-3.18486,53.3734,,,,,,,,Closed,1,2021,,124
547,Barclays,BB,Upton Merseyside,Branch,98 Ford Road,,Upton,Moreton,North West,CH49 0TQ,-3.097793,53.384931,,,,,,,,Closed,6,2018,,1017
548,Barclays,BB,Queensferry,Branch,10 Station Road,,Higher Shotton,Connah's Quay,Wales,CH5 1SX,-3.022739,53.206589,,,,,,,,Closed,12,2018,,112
549,Barclays,BB,Flint,Branch,,,Flint,Flint,Wales,CH6 5AJ,-3.134438,53.249176,,,,,,,,Closed,4,2021,,115
550,Barclays,BB,Local - Heswall,Branch,26,Pensby Road,Heswall,Heswall,North West,CH60 7RR,-3.098631,53.3291094,09:30-14:00,09:30-14:00,10:00-14:00,09:30-14:00,09:30-14:00,,22,Closed,7,2022,,191
551,Barclays,BB,Neston,Branch,19 High Street,,Neston,Neston,North West,CH64 9TZ,-3.063388,53.289321,,,,,,,,Closed,10,2017,,44
552,Barclays,BB,Branch - Ellesmere Port,Branch,100,Whitby Road,Ellesmere Port,Ellesmere Port,North West,CH65 0AD,-2.9028067,53.2783804,09:30-14:00,09:30-14:00,10:00-14:00,09:30-14:00,09:30-14:00,,22,Closed,3,2023,,516
553,Barclays,BB,Branch - Mold,Branch,38/42,High Street,,Mold,Wales,CH7 1BB,-3.1437291,53.1687585,09:30-14:00,09:30-14:00,10:00-14:00,09:30-14:00,09:30-14:00,,22,Closed,6,2023,,85
554,Barclays,BB,Hoilywell,Branch,48 High Street,,,"Holywell, Clywd",Wales,CH8 7LE,-3.221177,53.273049,,,,,,,,Closed,11,2016,,25
555,Barclays,BB,Branch - Burnham-on-Crouch,Branch,18,High Street,,Burnham-on-Crouch,Eastern,CM0 8AA,0.817581,51.6254,09:30-14:00,09:30-14:00,,,09:30-14:00,,13.5,Closed,8,2023,,734
556,Barclays,BB,Branch - Chelmsford,Branch,40-41,High Street,Central Chelmsford,Chelmsford,Eastern,CM1 1BE,0.4743566,51.7335514,09:00-16:00,09:00-16:00,10:00-16:00,09:00-16:00,09:00-16:00,09:00-12:00,37,Open,,,,99
557,Barclays,BB,Branch - Billericay,Branch,69,High Street,Hutton,Billericay,Eastern,CM12 9AU,0.4176507,51.6259614,09:00-14:00,09:00-14:00,10:00-14:00,,09:00-14:00,09:00-12:00,22,Closed,8,2022,,96
558,Barclays,BB,Branch - Brentwood,Branch,75,High Street,Brentwood,Brentwood,Eastern,CM14 4RP,0.3014032,51.620194,09:00-16:00,09:00-16:00,10:00-16:00,09:00-16:00,09:00-16:00,09:00-12:00,37,Closed,5,2024,,83
559,Barclays,BB,Branch - Shenfield,Branch,93-95,Hutton Road,Shenfield,Shenfield,Eastern,CM15 8JE,0.3290325,51.6304063,09:30-14:00,09:30-14:00,10:00-14:00,,09:30-14:00,,17.5,Closed,4,2023,,68
560,Barclays,BB,Local - Epping,Branch,183,High Street,,Epping,Eastern,CM16 4BH,0.1110801,51.6989343,09:00-14:00,09:00-14:00,10:00-14:00,,09:00-14:00,09:00-12:00,22,Closed,6,2022,,226
561,Barclays,BB,Harlow Station Road,Branch,21 High Street,,Old Harlow,Harlow,Eastern,CM17 0AS,0.13335,51.78447,,,,,,,,Closed,12,2020,,109
562,Barclays,BB,Branch - Harlow,Branch,14,The Water Gardens Centre,Little Parndon,Harlow,Eastern,CM20 1AN,0.094679,51.7682,09:00-16:00,09:00-16:00,10:00-16:00,09:00-16:00,09:00-16:00,09:00-12:00,37,Open,,,,163
563,Barclays,BB,Sawbridgeworth,Branch,28 Knight Street,,Sawbridgeworth,Sawbridgeworth,Eastern,CM21 9AU,0.151158,51.813203,,,,,,,,Closed,10,2018,,171
564,Barclays,BB,Branch - Bishops Stortford,Branch,10,North Street,Bishop's Park,Bishop's Stortford,Eastern,CM23 2LH,0.15898,51.8715,09:00-16:00,09:00-16:00,10:00-16:00,09:00-16:00,09:00-16:00,09:00-12:00,37,Closed,4,2024,,485
565,Barclays,BB,Branch - South Woodham Ferrers,Branch,18,Queen Elizabeth II Square,,South Woodham Ferrers,Eastern,CM3 5TF,0.6177856,51.6442593,09:30-14:00,09:30-14:00,,10:00-14:00,09:30-14:00,,17.5,Closed,8,2023,,152
566,Barclays,BB,Ingatestone,Branch,"74 HIGH ST,",,,Ingatestone,Eastern,CM4 9DW,0.385835,51.671438,,,,,,,,Closed,10,2015,,285
567,Barclays,BB,Ongar,Branch,186 High Street,,,Chipping Ongar,Eastern,CM5 9JL,0.245775,51.704744,,,,,,,,Closed,11,2018,,373
